[{"index":6,"name":"KickApps","founded_year":2004.0,"category_code":"enterprise","raised":32.0,"city":"London","location":{"type":"Point","coordinates":[-0.1356235,51.5094731]},"pro_nearby":36},{"index":12,"name":"LiveWorld","founded_year":1996.0,"category_code":"web","raised":0.0,"city":"London","location":{"type":"Point","coordinates":[-0.126236,51.500152]},"pro_nearby":35},{"index":11,"name":"ConnectMeAnywhere","founded_year":2006.0,"category_code":"web","raised":0.0,"city":"London W11 2HX","location":{"type":"Point","coordinates":[-0.205349,51.514935]},"pro_nearby":11},{"index":14,"name":"spigit","founded_year":2006.0,"category_code":"software","raised":55.6,"city":"London","location":{"type":"Point","coordinates":[-0.1394759,51.5170385]},"pro_nearby":37},{"index":13,"name":"PowerReviews","founded_year":null,"category_code":"social","raised":40.1,"city":"London","location":{"type":"Point","coordinates":[-0.104408,51.527099]},"pro_nearby":34},{"index":0,"name":"Babelgum","founded_year":2007.0,"category_code":"games_video","raised":13.2,"city":"London","location":{"type":"Point","coordinates":[-6.267494,53.344104]},"pro_nearby":1},{"index":21,"name":"Zopa","founded_year":2005.0,"category_code":"finance","raised":33.9,"city":"London","location":{"type":"Point","coordinates":[-0.139947,51.517904]},"pro_nearby":37},{"index":22,"name":"Covestor","founded_year":2005.0,"category_code":"finance","raised":23.9,"city":"London","location":{"type":"Point","coordinates":[-0.1433689,51.5194201]},"pro_nearby":37},{"index":28,"name":"Adknowledge","founded_year":2004.0,"category_code":"advertising","raised":248.0,"city":"Covent Garden, London","location":{"type":"Point","coordinates":[-0.1229212,51.5114403]},"pro_nearby":35},{"index":27,"name":"Seedcamp","founded_year":2007.0,"category_code":"finance","raised":5.45,"city":"London","location":{"type":"Point","coordinates":[-0.1418973,51.5108803]},"pro_nearby":37},{"index":31,"name":"Wonga","founded_year":2007.0,"category_code":"web","raised":101.0,"city":"London","location":{"type":"Point","coordinates":[-0.1626103,51.5192042]},"pro_nearby":34},{"index":33,"name":"FAROO","founded_year":2007.0,"category_code":"search","raised":0.0,"city":"London","location":{"type":"Point","coordinates":[-0.1065551,51.5195795]},"pro_nearby":34},{"index":36,"name":"Dopplr","founded_year":null,"category_code":"web","raised":0.0,"city":"London","location":{"type":"Point","coordinates":[-0.087432,51.523789]},"pro_nearby":32},{"index":38,"name":"Webjam","founded_year":2006.0,"category_code":"enterprise","raised":2.0,"city":"London","location":{"type":"Point","coordinates":[-0.136174,51.519819]},"pro_nearby":36},{"index":39,"name":"Jiglu","founded_year":2003.0,"category_code":"software","raised":0.8,"city":"London","location":{"type":"Point","coordinates":[-0.149522,51.54236]},"pro_nearby":31},{"index":40,"name":"HereOrThere","founded_year":null,"category_code":"web","raised":0.0,"city":null,"location":{"type":"Point","coordinates":[-3.435973,55.378051]},"pro_nearby":1},{"index":45,"name":"blinkbox","founded_year":2006.0,"category_code":"games_video","raised":0.0,"city":"London","location":{"type":"Point","coordinates":[-0.10759,51.520779]},"pro_nearby":34},{"index":42,"name":"FlexiScale","founded_year":1997.0,"category_code":"network_hosting","raised":0.0,"city":"","location":{"type":"Point","coordinates":[-3.435973,55.378051]},"pro_nearby":1},{"index":46,"name":"Songkick","founded_year":2007.0,"category_code":"music","raised":16.6,"city":"London","location":{"type":"Point","coordinates":[-0.0558343,51.54202]},"pro_nearby":11},{"index":50,"name":"eXelate","founded_year":2007.0,"category_code":"advertising","raised":32.0,"city":"London","location":{"type":"Point","coordinates":[-0.1326786,51.5150129]},"pro_nearby":36},{"index":51,"name":"Skinkers","founded_year":1999.0,"category_code":"software","raised":21.5,"city":"London","location":{"type":"Point","coordinates":[0.239866,51.604922]},"pro_nearby":1},{"index":54,"name":"Zmags","founded_year":2006.0,"category_code":"software","raised":20.8,"city":"London","location":{"type":"Point","coordinates":[-0.1247662,51.5111369]},"pro_nearby":35},{"index":53,"name":"Evi","founded_year":2005.0,"category_code":"search","raised":3.25,"city":"Cambridge","location":{"type":"Point","coordinates":[0.130647,52.195668]},"pro_nearby":2},{"index":61,"name":"betNOW","founded_year":2005.0,"category_code":"web","raised":5.0,"city":"London","location":{"type":"Point","coordinates":[-0.126389,51.511599]},"pro_nearby":35},{"index":57,"name":"Techlightenment","founded_year":null,"category_code":"web","raised":0.0,"city":"London","location":{"type":"Point","coordinates":[-0.126236,51.500152]},"pro_nearby":35},{"index":65,"name":"Next2Friends","founded_year":null,"category_code":"web","raised":0.0,"city":null,"location":{"type":"Point","coordinates":[-3.435973,55.378051]},"pro_nearby":1},{"index":67,"name":"FriendsAbroad","founded_year":null,"category_code":"network_hosting","raised":0.0,"city":"London","location":{"type":"Point","coordinates":[-0.126236,51.500152]},"pro_nearby":35},{"index":69,"name":"WAYN","founded_year":2002.0,"category_code":"network_hosting","raised":11.0,"city":"London","location":{"type":"Point","coordinates":[-0.126236,51.500152]},"pro_nearby":35},{"index":70,"name":"UnLtdWorld","founded_year":2007.0,"category_code":"enterprise","raised":0.312,"city":"London","location":{"type":"Point","coordinates":[-0.0926903,51.522413]},"pro_nearby":34},{"index":73,"name":"WorldTV","founded_year":2006.0,"category_code":"games_video","raised":1.0,"city":"London","location":{"type":"Point","coordinates":[-0.1262362,51.5001524]},"pro_nearby":35},{"index":75,"name":"Seatwave","founded_year":2006.0,"category_code":"ecommerce","raised":53.0,"city":"London","location":{"type":"Point","coordinates":[-0.126236,51.500152]},"pro_nearby":35},{"index":77,"name":"idiomag","founded_year":2006.0,"category_code":"games_video","raised":0.0,"city":"London","location":{"type":"Point","coordinates":[-0.126236,51.500152]},"pro_nearby":35},{"index":41,"name":"Tioti","founded_year":null,"category_code":"games_video","raised":0.0,"city":"London","location":{"type":"Point","coordinates":[-0.081169,51.524323]},"pro_nearby":30},{"index":83,"name":"Bragster","founded_year":2007.0,"category_code":"web","raised":3.5,"city":"London","location":{"type":"Point","coordinates":[-0.0766034,51.5220072]},"pro_nearby":32},{"index":84,"name":"amiando","founded_year":2006.0,"category_code":"web","raised":0.0,"city":"London","location":{"type":"Point","coordinates":[-0.0836311,51.5248598]},"pro_nearby":30},{"index":103,"name":"i-together","founded_year":null,"category_code":"web","raised":0.0,"city":"London","location":{"type":"Point","coordinates":[-0.155935,51.549687]},"pro_nearby":16},{"index":96,"name":"BBC","founded_year":1922.0,"category_code":"news","raised":0.0,"city":"London","location":{"type":"Point","coordinates":[-0.1437991,51.5185614]},"pro_nearby":37},{"index":104,"name":"ProofHQ","founded_year":2008.0,"category_code":"software","raised":0.0,"city":"London","location":{"type":"Point","coordinates":[-0.011154,51.5320478]},"pro_nearby":3},{"index":108,"name":"My Neighbourhoods","founded_year":2006.0,"category_code":"network_hosting","raised":0.0,"city":"London","location":{"type":"Point","coordinates":[-0.083999,51.523307]},"pro_nearby":30},{"index":111,"name":"Skimlinks","founded_year":2006.0,"category_code":"advertising","raised":7.02,"city":"London","location":{"type":"Point","coordinates":[-0.084462,51.522727]},"pro_nearby":31},{"index":113,"name":"Taylor Nelson Sofres","founded_year":1997.0,"category_code":"other","raised":0.0,"city":"London","location":{"type":"Point","coordinates":[-0.126236,51.500152]},"pro_nearby":35},{"index":116,"name":"Cheapflights","founded_year":1996.0,"category_code":"public_relations","raised":0.0,"city":"London","location":{"type":"Point","coordinates":[-0.155478,51.520062]},"pro_nearby":36},{"index":119,"name":"Playfish","founded_year":2007.0,"category_code":"games_video","raised":21.0,"city":"London","location":{"type":"Point","coordinates":[-0.1984802,51.4991094]},"pro_nearby":12},{"index":120,"name":"Wordki","founded_year":2008.0,"category_code":"web","raised":0.0,"city":"","location":{"type":"Point","coordinates":[-3.435973,55.378051]},"pro_nearby":1},{"index":121,"name":"Buongiorno","founded_year":1999.0,"category_code":"mobile","raised":0.0,"city":"London","location":{"type":"Point","coordinates":[-0.082571,51.5232478]},"pro_nearby":30},{"index":126,"name":"Glaxstar","founded_year":2000.0,"category_code":"software","raised":4.0,"city":"Birmingham","location":{"type":"Point","coordinates":[-1.903186,52.479554]},"pro_nearby":2},{"index":94,"name":"Tipped","founded_year":2007.0,"category_code":"web","raised":0.0,"city":"London","location":{"type":"Point","coordinates":[-0.0778345,51.5211159]},"pro_nearby":31},{"index":129,"name":"Myrl","founded_year":null,"category_code":"web","raised":0.0,"city":"London","location":{"type":"Point","coordinates":[-0.126236,51.500152]},"pro_nearby":35},{"index":132,"name":"Pikum","founded_year":2007.0,"category_code":"games_video","raised":5.92,"city":"London","location":{"type":"Point","coordinates":[-0.152998,51.539778]},"pro_nearby":30},{"index":134,"name":"TJAT","founded_year":2006.0,"category_code":"mobile","raised":0.0,"city":"London","location":{"type":"Point","coordinates":[-0.108111,51.516594]},"pro_nearby":34},{"index":136,"name":"7digital","founded_year":2004.0,"category_code":"music","raised":20.1,"city":"London","location":{"type":"Point","coordinates":[-0.083726,51.5254]},"pro_nearby":30},{"index":91,"name":"cScape","founded_year":1996.0,"category_code":"web","raised":0.0,"city":"London","location":{"type":"Point","coordinates":[-0.107843,51.523676]},"pro_nearby":34},{"index":139,"name":"Zemanta","founded_year":2007.0,"category_code":"web","raised":7.35,"city":"London","location":{"type":"Point","coordinates":[-0.0934254,51.5141566]},"pro_nearby":33},{"index":138,"name":"HelloTxt","founded_year":2007.0,"category_code":"web","raised":0.0,"city":"London","location":{"type":"Point","coordinates":[-0.0808503,51.5235368]},"pro_nearby":30},{"index":141,"name":"Bango","founded_year":1999.0,"category_code":"mobile","raised":10.2,"city":"Cambridge","location":{"type":"Point","coordinates":[0.124024,52.2155382]},"pro_nearby":2},{"index":140,"name":"Digital Sports Media","founded_year":2007.0,"category_code":"network_hosting","raised":0.0,"city":"","location":{"type":"Point","coordinates":[-3.435973,55.378051]},"pro_nearby":1},{"index":145,"name":"Realtime Worlds","founded_year":2002.0,"category_code":"games_video","raised":82.8,"city":"Dundee","location":{"type":"Point","coordinates":[-2.968111,56.461428]},"pro_nearby":2},{"index":144,"name":"Get the Point","founded_year":2006.0,"category_code":"web","raised":0.0,"city":"Edinburgh, Scotland","location":{"type":"Point","coordinates":[-3.201328,55.945399]},"pro_nearby":1},{"index":123,"name":"Slicethepie","founded_year":2007.0,"category_code":"games_video","raised":4.8,"city":"","location":{"type":"Point","coordinates":[-3.435973,55.378051]},"pro_nearby":1},{"index":148,"name":"Sososher","founded_year":2008.0,"category_code":"web","raised":0.0,"city":"London","location":{"type":"Point","coordinates":[-0.126236,51.500152]},"pro_nearby":35},{"index":153,"name":"Kublax","founded_year":2007.0,"category_code":"web","raised":1.09,"city":"London","location":{"type":"Point","coordinates":[-0.1262362,51.5001524]},"pro_nearby":35},{"index":154,"name":"Notanant","founded_year":2003.0,"category_code":"ecommerce","raised":0.0,"city":"Bristol","location":{"type":"Point","coordinates":[-2.59989,51.455483]},"pro_nearby":2},{"index":137,"name":"Domegos","founded_year":2006.0,"category_code":"web","raised":0.0,"city":"Birmingham","location":{"type":"Point","coordinates":[-1.90985,52.490533]},"pro_nearby":2},{"index":155,"name":"Undertone","founded_year":2002.0,"category_code":"advertising","raised":40.0,"city":"London","location":{"type":"Point","coordinates":[-0.132904,51.5118239]},"pro_nearby":36},{"index":156,"name":"Babuki","founded_year":2006.0,"category_code":"network_hosting","raised":0.0,"city":"","location":{"type":"Point","coordinates":[-3.435973,55.378051]},"pro_nearby":1},{"index":159,"name":"DotHomes","founded_year":2006.0,"category_code":"search","raised":0.0,"city":"London","location":{"type":"Point","coordinates":[-0.126236,51.500152]},"pro_nearby":35},{"index":151,"name":"EMI Group","founded_year":1931.0,"category_code":null,"raised":0.0,"city":"London","location":{"type":"Point","coordinates":[-0.192627,51.49948]},"pro_nearby":23},{"index":165,"name":"Trampoline Systems","founded_year":2003.0,"category_code":"enterprise","raised":7.48,"city":"London","location":{"type":"Point","coordinates":[-0.0869736,51.5212179]},"pro_nearby":31},{"index":164,"name":"Huddle","founded_year":2006.0,"category_code":"enterprise","raised":38.2,"city":"London","location":{"type":"Point","coordinates":[-0.0814873,51.4999065]},"pro_nearby":32},{"index":167,"name":"Open Source Living","founded_year":2007.0,"category_code":"software","raised":0.0,"city":"London","location":{"type":"Point","coordinates":[-0.126236,51.500152]},"pro_nearby":35},{"index":168,"name":"Chinwag","founded_year":1996.0,"category_code":"advertising","raised":0.0,"city":"London","location":{"type":"Point","coordinates":[-0.018647,51.50485]},"pro_nearby":5},{"index":171,"name":"Moviestorm","founded_year":2005.0,"category_code":"software","raised":5.375,"city":"Cambridge","location":{"type":"Point","coordinates":[0.130588,52.197471]},"pro_nearby":2},{"index":173,"name":"Nsyght","founded_year":2007.0,"category_code":"web","raised":0.0,"city":"Isleworth","location":{"type":"Point","coordinates":[-0.3387433,51.4751999]},"pro_nearby":1},{"index":176,"name":"mySupermarket","founded_year":2006.0,"category_code":"web","raised":32.8,"city":"London","location":{"type":"Point","coordinates":[-0.159205,51.513671]},"pro_nearby":36},{"index":177,"name":"TrustedPlaces","founded_year":2006.0,"category_code":"advertising","raised":1.0,"city":"London","location":{"type":"Point","coordinates":[-0.113583,51.524483]},"pro_nearby":34},{"index":181,"name":"Logicalware","founded_year":2002.0,"category_code":"software","raised":0.375,"city":"Edinburgh","location":{"type":"Point","coordinates":[-3.215149,55.94862]},"pro_nearby":1},{"index":179,"name":"Nestoria","founded_year":2006.0,"category_code":"search","raised":0.0,"city":"London","location":{"type":"Point","coordinates":[-0.0949082,51.5290669]},"pro_nearby":34},{"index":185,"name":"OnOneMap","founded_year":2005.0,"category_code":"public_relations","raised":0.0,"city":"London","location":{"type":"Point","coordinates":[-0.147733,51.512792]},"pro_nearby":37},{"index":187,"name":"ProcServe","founded_year":2006.0,"category_code":"ecommerce","raised":0.0,"city":"London","location":{"type":"Point","coordinates":[-0.146665,51.494067]},"pro_nearby":34},{"index":194,"name":"SOSIUS","founded_year":2007.0,"category_code":"enterprise","raised":0.0,"city":"London","location":{"type":"Point","coordinates":[-0.209019,51.5260475]},"pro_nearby":9},{"index":197,"name":"BlackNorth Software","founded_year":null,"category_code":"software","raised":0.0,"city":"","location":{"type":"Point","coordinates":[-3.435973,55.378051]},"pro_nearby":1},{"index":199,"name":"TutorByTxt","founded_year":2008.0,"category_code":"mobile","raised":0.0,"city":"London","location":{"type":"Point","coordinates":[-0.217662,51.48916]},"pro_nearby":4},{"index":149,"name":"School of Everything","founded_year":2007.0,"category_code":"web","raised":0.438,"city":"London","location":{"type":"Point","coordinates":[-0.053981,51.528817]},"pro_nearby":15},{"index":200,"name":"Globant","founded_year":2003.0,"category_code":"software","raised":28.0,"city":"London","location":{"type":"Point","coordinates":[-0.0952197,51.5205095]},"pro_nearby":34},{"index":201,"name":"ExitReality","founded_year":2002.0,"category_code":"web","raised":0.0,"city":"London","location":{"type":"Point","coordinates":[-0.126236,51.500152]},"pro_nearby":35},{"index":204,"name":"WeeWorld","founded_year":1998.0,"category_code":"web","raised":15.5,"city":"Glasgow","location":{"type":"Point","coordinates":[-4.2635168,55.8631705]},"pro_nearby":2},{"index":202,"name":"LOVEFiLM","founded_year":2003.0,"category_code":"web","raised":0.0,"city":"London","location":{"type":"Point","coordinates":[-0.1585816,51.5241294]},"pro_nearby":35},{"index":207,"name":"Crowdstatus","founded_year":2008.0,"category_code":"public_relations","raised":0.0,"city":"","location":{"type":"Point","coordinates":[-3.435973,55.378051]},"pro_nearby":1},{"index":215,"name":"Lingoloopy","founded_year":2007.0,"category_code":"web","raised":0.0,"city":"London","location":{"type":"Point","coordinates":[-0.126236,51.500152]},"pro_nearby":35},{"index":218,"name":"Mind Candy","founded_year":2003.0,"category_code":"web","raised":10.0,"city":"London","location":{"type":"Point","coordinates":[-0.147646,51.471958]},"pro_nearby":19},{"index":222,"name":"MakeUseOf","founded_year":2006.0,"category_code":"software","raised":0.0,"city":"Glasgow","location":{"type":"Point","coordinates":[-4.271165,55.862878]},"pro_nearby":2},{"index":221,"name":"Pixsta","founded_year":2010.0,"category_code":"web","raised":3.75,"city":"London","location":{"type":"Point","coordinates":[-0.208979,51.51819]},"pro_nearby":10},{"index":208,"name":"Business IT Online","founded_year":null,"category_code":"enterprise","raised":0.0,"city":"London","location":{"type":"Point","coordinates":[-0.22233,51.501898]},"pro_nearby":6},{"index":230,"name":"amazingtunes","founded_year":2006.0,"category_code":"games_video","raised":1.75,"city":"Newcastle Upon Tyne","location":{"type":"Point","coordinates":[-1.611141,54.971346]},"pro_nearby":1},{"index":235,"name":"Yell","founded_year":1966.0,"category_code":"web","raised":0.0,"city":"Reading","location":{"type":"Point","coordinates":[-0.963937,51.453427]},"pro_nearby":5},{"index":239,"name":"Textensor","founded_year":2005.0,"category_code":"web","raised":0.0,"city":"Edinburgh","location":{"type":"Point","coordinates":[-3.182321,55.96229]},"pro_nearby":1},{"index":210,"name":"Gameware Development","founded_year":2003.0,"category_code":"software","raised":0.0,"city":"Cambridge","location":{"type":"Point","coordinates":[0.130733,52.205194]},"pro_nearby":2},{"index":241,"name":"IDlasso","founded_year":null,"category_code":"web","raised":0.0,"city":"","location":{"type":"Point","coordinates":[-3.435973,55.378051]},"pro_nearby":1},{"index":242,"name":"Smarkets","founded_year":2008.0,"category_code":"sports","raised":2.71,"city":"London","location":{"type":"Point","coordinates":[-0.130772,51.550757]},"pro_nearby":25},{"index":243,"name":"Hypertag","founded_year":2001.0,"category_code":"mobile","raised":0.0,"city":"Cambridge","location":{"type":"Point","coordinates":[0.131237,52.202544]},"pro_nearby":2},{"index":245,"name":"YouPage Ltd","founded_year":2008.0,"category_code":"search","raised":0.0,"city":"London","location":{"type":"Point","coordinates":[-0.107143,51.498319]},"pro_nearby":34},{"index":252,"name":"Yabb","founded_year":1997.0,"category_code":"web","raised":0.0,"city":"London","location":{"type":"Point","coordinates":[-0.13376,51.514897]},"pro_nearby":36},{"index":253,"name":"Worship Journal","founded_year":2008.0,"category_code":"web","raised":0.0,"city":"London","location":{"type":"Point","coordinates":[-0.150417,51.517076]},"pro_nearby":36},{"index":254,"name":"Antal International","founded_year":1993.0,"category_code":"consulting","raised":0.0,"city":"London","location":{"type":"Point","coordinates":[-0.156212,51.519158]},"pro_nearby":36},{"index":255,"name":"adflyer","founded_year":2007.0,"category_code":"ecommerce","raised":0.0,"city":"Birmingham","location":{"type":"Point","coordinates":[-1.934785,52.458458]},"pro_nearby":2},{"index":247,"name":"JustMeans","founded_year":2007.0,"category_code":"network_hosting","raised":0.0,"city":"London","location":{"type":"Point","coordinates":[-0.091784,51.503188]},"pro_nearby":32},{"index":261,"name":"Swirrl","founded_year":2008.0,"category_code":"advertising","raised":0.0,"city":"","location":{"type":"Point","coordinates":[-3.435973,55.378051]},"pro_nearby":1},{"index":262,"name":"Locify","founded_year":2007.0,"category_code":"mobile","raised":0.0,"city":"Manchester","location":{"type":"Point","coordinates":[-2.259258,53.48336]},"pro_nearby":1},{"index":263,"name":"wheresbest","founded_year":2008.0,"category_code":"search","raised":0.0,"city":"","location":{"type":"Point","coordinates":[-3.435973,55.378051]},"pro_nearby":1},{"index":264,"name":"Phreadz","founded_year":2008.0,"category_code":"web","raised":0.0,"city":"London","location":{"type":"Point","coordinates":[-0.126236,51.500152]},"pro_nearby":35},{"index":256,"name":"Webconverger","founded_year":2007.0,"category_code":"software","raised":0.0,"city":"","location":{"type":"Point","coordinates":[-3.435973,55.378051]},"pro_nearby":1},{"index":272,"name":"Cloudcity","founded_year":2007.0,"category_code":"web","raised":3.75,"city":"St Albans","location":{"type":"Point","coordinates":[-0.280535,51.750141]},"pro_nearby":1},{"index":273,"name":"ClassMarker","founded_year":2006.0,"category_code":"web","raised":0.0,"city":"","location":{"type":"Point","coordinates":[-3.435973,55.378051]},"pro_nearby":1},{"index":267,"name":"Apertio","founded_year":null,"category_code":"mobile","raised":30.0,"city":"Bristol","location":{"type":"Point","coordinates":[-2.533334,51.499708]},"pro_nearby":1},{"index":275,"name":"Sazell","founded_year":2008.0,"category_code":"web","raised":0.0,"city":"London","location":{"type":"Point","coordinates":[-0.126236,51.500152]},"pro_nearby":35},{"index":257,"name":"MediaRush","founded_year":2000.0,"category_code":"web","raised":0.0,"city":"","location":{"type":"Point","coordinates":[-3.435973,55.378051]},"pro_nearby":1},{"index":280,"name":"WSO2","founded_year":2005.0,"category_code":"software","raised":20.5,"city":"","location":{"type":"Point","coordinates":[-0.919424,50.8472228]},"pro_nearby":1},{"index":288,"name":"OurPlanet","founded_year":null,"category_code":null,"raised":0.0,"city":"","location":{"type":"Point","coordinates":[-3.435973,55.378051]},"pro_nearby":1},{"index":290,"name":"Merlin Network","founded_year":null,"category_code":"other","raised":0.0,"city":"London","location":{"type":"Point","coordinates":[-0.137252,51.518001]},"pro_nearby":37},{"index":295,"name":"Corizon","founded_year":null,"category_code":"software","raised":0.0,"city":"London","location":{"type":"Point","coordinates":[-0.0774998,51.5175476]},"pro_nearby":32},{"index":299,"name":"SocialBang","founded_year":2005.0,"category_code":"network_hosting","raised":0.0,"city":"Richmond-upon-Thames","location":{"type":"Point","coordinates":[-0.2999236,51.4637732]},"pro_nearby":2},{"index":276,"name":"PageUp People","founded_year":1997.0,"category_code":"software","raised":0.0,"city":"London","location":{"type":"Point","coordinates":[-0.123614,51.515124]},"pro_nearby":34},{"index":305,"name":"Unicast","founded_year":1998.0,"category_code":"advertising","raised":0.0,"city":"London","location":{"type":"Point","coordinates":[-0.136174,51.519819]},"pro_nearby":36},{"index":306,"name":"Exinda","founded_year":2002.0,"category_code":"software","raised":19.0,"city":"Watford","location":{"type":"Point","coordinates":[-0.397004,51.661293]},"pro_nearby":1},{"index":311,"name":"Channel Intelligence","founded_year":1999.0,"category_code":"web","raised":3.01,"city":"London","location":{"type":"Point","coordinates":[-0.126236,51.500152]},"pro_nearby":35},{"index":310,"name":"Wigadoo","founded_year":2007.0,"category_code":"web","raised":0.0,"city":"London","location":{"type":"Point","coordinates":[-0.0944873,51.5016514]},"pro_nearby":33},{"index":312,"name":"Vigster","founded_year":null,"category_code":"games_video","raised":0.062,"city":"London","location":{"type":"Point","coordinates":[-0.126236,51.500152]},"pro_nearby":35},{"index":315,"name":"LinQpay","founded_year":2007.0,"category_code":"mobile","raised":0.0,"city":"London","location":{"type":"Point","coordinates":[-0.146431,51.514193]},"pro_nearby":38},{"index":309,"name":"Monetise","founded_year":null,"category_code":"ecommerce","raised":0.0,"city":"London","location":{"type":"Point","coordinates":[-0.138397,51.516581]},"pro_nearby":37},{"index":321,"name":"MyMart","founded_year":2006.0,"category_code":"mobile","raised":0.0,"city":"London","location":{"type":"Point","coordinates":[-0.157333,51.541937]},"pro_nearby":21},{"index":324,"name":"EventElephant","founded_year":2008.0,"category_code":"software","raised":0.0,"city":"Richmond","location":{"type":"Point","coordinates":[-6.252923,53.335194]},"pro_nearby":1},{"index":326,"name":"111pix","founded_year":2006.0,"category_code":null,"raised":0.0,"city":"London","location":{"type":"Point","coordinates":[-0.1339263,51.5133527]},"pro_nearby":36},{"index":327,"name":"AdParlor","founded_year":2008.0,"category_code":"advertising","raised":0.0,"city":"Covent Garden, London","location":{"type":"Point","coordinates":[-0.1260146,51.5119883]},"pro_nearby":35},{"index":337,"name":"LivePerson","founded_year":1995.0,"category_code":"software","raised":2.3,"city":"Reading","location":{"type":"Point","coordinates":[-0.9876997,51.4238637]},"pro_nearby":3},{"index":341,"name":"Expensure","founded_year":2007.0,"category_code":"mobile","raised":0.0,"city":"London","location":{"type":"Point","coordinates":[-0.126236,51.500152]},"pro_nearby":35},{"index":342,"name":"Smashbuys","founded_year":2008.0,"category_code":"hardware","raised":0.0,"city":"London","location":{"type":"Point","coordinates":[-0.126236,51.500152]},"pro_nearby":35},{"index":343,"name":"Vonage","founded_year":2001.0,"category_code":"mobile","raised":0.0,"city":"London","location":{"type":"Point","coordinates":[-0.1471,51.512915]},"pro_nearby":38},{"index":344,"name":"Buy Our Honeymoon","founded_year":2007.0,"category_code":"web","raised":0.0,"city":"Kent","location":{"type":"Point","coordinates":[0.001682,51.484638]},"pro_nearby":2},{"index":345,"name":"TweetDeck","founded_year":2008.0,"category_code":"software","raised":3.8,"city":"London","location":{"type":"Point","coordinates":[-0.1262362,51.5001524]},"pro_nearby":35},{"index":348,"name":"GlocalReach","founded_year":2007.0,"category_code":"mobile","raised":0.2,"city":"London","location":{"type":"Point","coordinates":[-0.1219851,51.5208247]},"pro_nearby":34},{"index":350,"name":"IDEO","founded_year":1978.0,"category_code":"consulting","raised":0.0,"city":"London","location":{"type":"Point","coordinates":[-0.109804,51.522272]},"pro_nearby":34},{"index":353,"name":"Wahanda","founded_year":2008.0,"category_code":"web","raised":8.75,"city":"London","location":{"type":"Point","coordinates":[1.996567,41.792265]},"pro_nearby":1},{"index":359,"name":"Videoplaza","founded_year":2007.0,"category_code":"advertising","raised":17.331,"city":"London","location":{"type":"Point","coordinates":[-0.1020894,51.5212481]},"pro_nearby":34},{"index":360,"name":"Snagsta","founded_year":2007.0,"category_code":"search","raised":0.13,"city":"London","location":{"type":"Point","coordinates":[-0.1400366,51.4761694]},"pro_nearby":24},{"index":363,"name":"Kappa Prime","founded_year":2008.0,"category_code":"web","raised":0.0,"city":"London","location":{"type":"Point","coordinates":[-0.175393,51.498067]},"pro_nearby":26},{"index":367,"name":"Zoomix","founded_year":2000.0,"category_code":"software","raised":0.0,"city":"London","location":{"type":"Point","coordinates":[-0.263377,51.462904]},"pro_nearby":2},{"index":332,"name":"IPC Media","founded_year":null,"category_code":"other","raised":0.0,"city":"London","location":{"type":"Point","coordinates":[-0.099901,51.505671]},"pro_nearby":33},{"index":329,"name":"PitchSpace","founded_year":2008.0,"category_code":"public_relations","raised":0.0,"city":"London","location":{"type":"Point","coordinates":[-0.147348,51.493317]},"pro_nearby":34},{"index":368,"name":"muzu tv","founded_year":2006.0,"category_code":"web","raised":8.0,"city":"London","location":{"type":"Point","coordinates":[-0.13063,51.513678]},"pro_nearby":36},{"index":334,"name":"Appian","founded_year":1999.0,"category_code":"software","raised":10.0,"city":"London","location":{"type":"Point","coordinates":[-0.094384,51.513122]},"pro_nearby":33},{"index":370,"name":"Dexterra","founded_year":2000.0,"category_code":"mobile","raised":123.0,"city":"Reading, Berkshire","location":{"type":"Point","coordinates":[-0.995684,51.420766]},"pro_nearby":3},{"index":371,"name":"LookupPage","founded_year":2006.0,"category_code":"search","raised":0.0,"city":"London","location":{"type":"Point","coordinates":[-0.081486,51.500446]},"pro_nearby":32},{"index":372,"name":"Dynamic50","founded_year":2008.0,"category_code":"consulting","raised":0.0,"city":"London","location":{"type":"Point","coordinates":[-0.184358,51.51781]},"pro_nearby":25},{"index":374,"name":"INFINICOR","founded_year":null,"category_code":"other","raised":0.0,"city":"London","location":{"type":"Point","coordinates":[-0.0934183,51.4964279]},"pro_nearby":33},{"index":378,"name":"Advorto","founded_year":1998.0,"category_code":"software","raised":0.0,"city":"London","location":{"type":"Point","coordinates":[-0.083743,51.500395]},"pro_nearby":32},{"index":389,"name":"We're Rolling","founded_year":2007.0,"category_code":"other","raised":0.0,"city":"London","location":{"type":"Point","coordinates":[-0.0197,51.496217]},"pro_nearby":4},{"index":393,"name":"Black Duck Software","founded_year":2002.0,"category_code":"software","raised":50.5,"city":"Manchester","location":{"type":"Point","coordinates":[-2.258714,53.524419]},"pro_nearby":1},{"index":394,"name":"CarbonFlow","founded_year":2006.0,"category_code":"software","raised":8.47,"city":"London","location":{"type":"Point","coordinates":[-0.126236,51.500152]},"pro_nearby":35},{"index":397,"name":"Big Property Ladder","founded_year":1995.0,"category_code":"other","raised":0.0,"city":"London.","location":{"type":"Point","coordinates":[-0.1392765,51.5115309]},"pro_nearby":37},{"index":401,"name":"Sweemo","founded_year":2008.0,"category_code":"web","raised":0.0,"city":"London","location":{"type":"Point","coordinates":[-0.1227806,51.5277086]},"pro_nearby":35},{"index":402,"name":"Livebookings","founded_year":2005.0,"category_code":"advertising","raised":63.0,"city":"London","location":{"type":"Point","coordinates":[-0.1198244,51.5112139]},"pro_nearby":35},{"index":403,"name":"Event Innovation","founded_year":2007.0,"category_code":"enterprise","raised":0.0,"city":"London","location":{"type":"Point","coordinates":[-0.133591,51.516203]},"pro_nearby":35},{"index":405,"name":"Industria","founded_year":2003.0,"category_code":"software","raised":0.0,"city":"London","location":{"type":"Point","coordinates":[-0.126236,51.500152]},"pro_nearby":35},{"index":409,"name":"The Tin","founded_year":2001.0,"category_code":"web","raised":0.0,"city":"London","location":{"type":"Point","coordinates":[-0.10978,51.52129]},"pro_nearby":34},{"index":410,"name":"Telnic","founded_year":2000.0,"category_code":"search","raised":35.0,"city":"London","location":{"type":"Point","coordinates":[-0.134078,51.518107]},"pro_nearby":36},{"index":412,"name":"Near Global","founded_year":2007.0,"category_code":"software","raised":0.0,"city":"London","location":{"type":"Point","coordinates":[-0.196592,51.549348]},"pro_nearby":7},{"index":418,"name":"Illumina Digital","founded_year":1998.0,"category_code":"games_video","raised":0.0,"city":"London","location":{"type":"Point","coordinates":[-0.25628,51.503612]},"pro_nearby":3},{"index":421,"name":"Squiz UK","founded_year":2003.0,"category_code":"web","raised":0.0,"city":"London","location":{"type":"Point","coordinates":[-0.083444,51.521603]},"pro_nearby":30},{"index":423,"name":"ITBrix","founded_year":2005.0,"category_code":"software","raised":0.0,"city":"St. Albans Herts","location":{"type":"Point","coordinates":[-0.341379,51.748219]},"pro_nearby":1},{"index":425,"name":"e-Man","founded_year":2000.0,"category_code":"web","raised":0.0,"city":"London,","location":{"type":"Point","coordinates":[-0.141022,51.517712]},"pro_nearby":37},{"index":441,"name":"SMBLive","founded_year":2005.0,"category_code":"enterprise","raised":0.0,"city":"London","location":{"type":"Point","coordinates":[-0.124569,51.51299]},"pro_nearby":35},{"index":452,"name":"Voxeo","founded_year":1999.0,"category_code":"network_hosting","raised":9.0,"city":"Hertfordshire","location":{"type":"Point","coordinates":[-0.1871194,51.8027645]},"pro_nearby":2},{"index":462,"name":"MetaPack","founded_year":1999.0,"category_code":"software","raised":20.5,"city":"London","location":{"type":"Point","coordinates":[-0.111242,51.52216]},"pro_nearby":34},{"index":469,"name":"OCLC","founded_year":1967.0,"category_code":"other","raised":0.0,"city":"Sheffield","location":{"type":"Point","coordinates":[-1.5031169,53.3630547]},"pro_nearby":1},{"index":477,"name":"artandseek","founded_year":2007.0,"category_code":"other","raised":0.05,"city":"London","location":{"type":"Point","coordinates":[-0.126236,51.500152]},"pro_nearby":35},{"index":431,"name":"Paymo","founded_year":null,"category_code":"mobile","raised":5.0,"city":"London","location":{"type":"Point","coordinates":[-0.109017,51.514165]},"pro_nearby":34},{"index":435,"name":"retaggr","founded_year":2008.0,"category_code":"web","raised":0.0,"city":"London","location":{"type":"Point","coordinates":[-0.24233,51.549167]},"pro_nearby":2},{"index":478,"name":"Intela","founded_year":2006.0,"category_code":"advertising","raised":13.3,"city":"London","location":{"type":"Point","coordinates":[-0.1230127,51.5139758]},"pro_nearby":35},{"index":481,"name":"AKQA","founded_year":1995.0,"category_code":"advertising","raised":0.0,"city":"London","location":{"type":"Point","coordinates":[-0.102318,51.521351]},"pro_nearby":34},{"index":483,"name":"Mimosa Systems","founded_year":2003.0,"category_code":"software","raised":53.8,"city":"Reading","location":{"type":"Point","coordinates":[-0.93391,51.461674]},"pro_nearby":2},{"index":499,"name":"SMBLive","founded_year":2005.0,"category_code":"enterprise","raised":0.0,"city":"London","location":{"type":"Point","coordinates":[-0.124569,51.51299]},"pro_nearby":35},{"index":510,"name":"Voxeo","founded_year":1999.0,"category_code":"network_hosting","raised":9.0,"city":"Hertfordshire","location":{"type":"Point","coordinates":[-0.1871194,51.8027645]},"pro_nearby":2},{"index":520,"name":"MetaPack","founded_year":1999.0,"category_code":"software","raised":20.5,"city":"London","location":{"type":"Point","coordinates":[-0.111242,51.52216]},"pro_nearby":34},{"index":527,"name":"OCLC","founded_year":1967.0,"category_code":"other","raised":0.0,"city":"Sheffield","location":{"type":"Point","coordinates":[-1.5031169,53.3630547]},"pro_nearby":1},{"index":535,"name":"artandseek","founded_year":2007.0,"category_code":"other","raised":0.05,"city":"London","location":{"type":"Point","coordinates":[-0.126236,51.500152]},"pro_nearby":35},{"index":486,"name":"Pressmart","founded_year":null,"category_code":"web","raised":6.0,"city":"Wiltshire","location":{"type":"Point","coordinates":[-1.5953939,51.4987295]},"pro_nearby":2},{"index":536,"name":"Intela","founded_year":2006.0,"category_code":"advertising","raised":13.3,"city":"London","location":{"type":"Point","coordinates":[-0.1230127,51.5139758]},"pro_nearby":35},{"index":538,"name":"AKQA","founded_year":1995.0,"category_code":"advertising","raised":0.0,"city":"London","location":{"type":"Point","coordinates":[-0.102318,51.521351]},"pro_nearby":34},{"index":541,"name":"Mimosa Systems","founded_year":2003.0,"category_code":"software","raised":53.8,"city":"Reading","location":{"type":"Point","coordinates":[-0.93391,51.461674]},"pro_nearby":2},{"index":553,"name":"Small Business Advertising Network","founded_year":2007.0,"category_code":"advertising","raised":0.0,"city":"London","location":{"type":"Point","coordinates":[-0.103101,51.511349]},"pro_nearby":34},{"index":558,"name":"Streamline Alliance","founded_year":1999.0,"category_code":"other","raised":1.0,"city":"London","location":{"type":"Point","coordinates":[-0.207932,51.483057]},"pro_nearby":6},{"index":560,"name":"PCIQ","founded_year":2006.0,"category_code":"web","raised":0.0,"city":"London","location":{"type":"Point","coordinates":[-0.130109,51.515374]},"pro_nearby":35},{"index":561,"name":"Qpyn","founded_year":2003.0,"category_code":"mobile","raised":0.625,"city":"London","location":{"type":"Point","coordinates":[-0.197676,51.588083]},"pro_nearby":1},{"index":563,"name":"mashup* Event","founded_year":2006.0,"category_code":"enterprise","raised":0.0,"city":"London","location":{"type":"Point","coordinates":[-0.0871537,51.5093129]},"pro_nearby":32},{"index":564,"name":"Yankee Group","founded_year":1973.0,"category_code":"consulting","raised":0.0,"city":"London","location":{"type":"Point","coordinates":[-0.125134,51.521104]},"pro_nearby":34},{"index":566,"name":"SearchSalad","founded_year":2007.0,"category_code":"search","raised":0.0,"city":"London","location":{"type":"Point","coordinates":[-0.145438,51.509905]},"pro_nearby":37},{"index":567,"name":"OneSource Information Services","founded_year":1993.0,"category_code":"analytics","raised":0.0,"city":"London","location":{"type":"Point","coordinates":[-0.088245,51.518327]},"pro_nearby":32},{"index":571,"name":"24SevenOffice","founded_year":1997.0,"category_code":"software","raised":0.0,"city":"London","location":{"type":"Point","coordinates":[-0.134634,51.514913]},"pro_nearby":36},{"index":576,"name":"litl","founded_year":2007.0,"category_code":"hardware","raised":0.0,"city":"London","location":{"type":"Point","coordinates":[-0.139244,51.511494]},"pro_nearby":37},{"index":577,"name":"Whereonearth","founded_year":1995.0,"category_code":"software","raised":0.0,"city":"London","location":{"type":"Point","coordinates":[-0.128958,51.513422]},"pro_nearby":35},{"index":578,"name":"FISCAL Technologies","founded_year":2002.0,"category_code":"software","raised":0.0,"city":"READING","location":{"type":"Point","coordinates":[-0.9717955,51.4323208]},"pro_nearby":5},{"index":588,"name":"Acknowledgement","founded_year":2003.0,"category_code":null,"raised":0.0,"city":"London","location":{"type":"Point","coordinates":[-0.0740678,51.5183725]},"pro_nearby":32},{"index":544,"name":"Pressmart","founded_year":null,"category_code":"web","raised":6.0,"city":"Wiltshire","location":{"type":"Point","coordinates":[-1.5953939,51.4987295]},"pro_nearby":2},{"index":590,"name":"Box UK","founded_year":1998.0,"category_code":"software","raised":0.0,"city":"London","location":{"type":"Point","coordinates":[-0.1392447,51.5107737]},"pro_nearby":37},{"index":593,"name":"Tailgate Technologies","founded_year":2007.0,"category_code":"advertising","raised":0.0,"city":"London","location":{"type":"Point","coordinates":[-0.127743,51.511889]},"pro_nearby":35},{"index":594,"name":"AMF Ventures","founded_year":2001.0,"category_code":"consulting","raised":0.0,"city":"","location":{"type":"Point","coordinates":[-0.142322,51.507404]},"pro_nearby":37},{"index":596,"name":"Siondo","founded_year":2007.0,"category_code":"enterprise","raised":0.0,"city":"London","location":{"type":"Point","coordinates":[-0.202734,51.480657]},"pro_nearby":6},{"index":608,"name":"Lionhead Studios","founded_year":1997.0,"category_code":"software","raised":0.0,"city":"Guildford Surrey","location":{"type":"Point","coordinates":[-0.612695,51.240788]},"pro_nearby":1},{"index":609,"name":"Pumant","founded_year":2005.0,"category_code":"software","raised":1.2,"city":"Birmingham","location":{"type":"Point","coordinates":[-1.893621,52.482932]},"pro_nearby":2},{"index":617,"name":"SocialGO","founded_year":2007.0,"category_code":"social","raised":3.0,"city":"London","location":{"type":"Point","coordinates":[-0.0925694,51.5027669]},"pro_nearby":32},{"index":624,"name":"Zoopla","founded_year":2007.0,"category_code":"real_estate","raised":10.2,"city":"London","location":{"type":"Point","coordinates":[-0.1010801,51.5037471]},"pro_nearby":34},{"index":625,"name":"Signature IT","founded_year":null,"category_code":"software","raised":0.0,"city":"London","location":{"type":"Point","coordinates":[-0.126236,51.500152]},"pro_nearby":35},{"index":626,"name":"Recast Digital","founded_year":2008.0,"category_code":"advertising","raised":0.0,"city":"London","location":{"type":"Point","coordinates":[-0.132894,51.499671]},"pro_nearby":36},{"index":628,"name":"Sparkpr","founded_year":1999.0,"category_code":"public_relations","raised":0.0,"city":"London","location":{"type":"Point","coordinates":[-0.0762235,51.524127]},"pro_nearby":31},{"index":634,"name":"talkbiznow","founded_year":null,"category_code":"network_hosting","raised":0.0,"city":"London","location":{"type":"Point","coordinates":[-0.1346112,51.5149197]},"pro_nearby":36},{"index":639,"name":"Solid State Group","founded_year":2002.0,"category_code":"web","raised":0.0,"city":"London","location":{"type":"Point","coordinates":[-0.0830772,51.5246619]},"pro_nearby":30},{"index":644,"name":"Jaincotech","founded_year":2004.0,"category_code":"other","raised":0.0,"city":"United Kingdom.","location":{"type":"Point","coordinates":[-0.1416596,51.5350682]},"pro_nearby":35},{"index":646,"name":"InnoCentive","founded_year":2001.0,"category_code":"enterprise","raised":30.3,"city":"London","location":{"type":"Point","coordinates":[-0.1581968,51.5183541]},"pro_nearby":35},{"index":602,"name":"MultiMap","founded_year":null,"category_code":"web","raised":0.0,"city":"London","location":{"type":"Point","coordinates":[-0.109017,51.514165]},"pro_nearby":34},{"index":648,"name":"Imagine Golf Club","founded_year":2008.0,"category_code":"network_hosting","raised":0.0,"city":"Edinburgh","location":{"type":"Point","coordinates":[-3.1577774,55.9735517]},"pro_nearby":1},{"index":650,"name":"Property Owl","founded_year":null,"category_code":"software","raised":0.0,"city":"London","location":{"type":"Point","coordinates":[-0.18259,51.465432]},"pro_nearby":2},{"index":656,"name":"moanlog","founded_year":null,"category_code":"web","raised":0.0,"city":"London","location":{"type":"Point","coordinates":[-0.1262362,51.5001524]},"pro_nearby":35},{"index":657,"name":"ShipServ","founded_year":1999.0,"category_code":"ecommerce","raised":3.25,"city":"London","location":{"type":"Point","coordinates":[-0.263377,51.4629038]},"pro_nearby":2},{"index":661,"name":"Socialwrks","founded_year":2005.0,"category_code":"software","raised":0.0,"city":"Guildford","location":{"type":"Point","coordinates":[-0.6126472,51.2402584]},"pro_nearby":1},{"index":662,"name":"SLevolution","founded_year":2007.0,"category_code":"software","raised":0.0,"city":"London","location":{"type":"Point","coordinates":[-0.1364995,51.4598249]},"pro_nearby":9},{"index":671,"name":"Movirtu","founded_year":2008.0,"category_code":"mobile","raised":5.5,"city":"London","location":{"type":"Point","coordinates":[-0.1815999,51.5499708]},"pro_nearby":9},{"index":678,"name":"Speedchecker","founded_year":2008.0,"category_code":"web","raised":0.0,"city":"Bristol","location":{"type":"Point","coordinates":[-2.6136797,51.4749263]},"pro_nearby":2},{"index":684,"name":"Which Web Design Company","founded_year":2007.0,"category_code":"enterprise","raised":0.0,"city":"London","location":{"type":"Point","coordinates":[-0.1262362,51.5001524]},"pro_nearby":35},{"index":690,"name":"BeatPick","founded_year":2007.0,"category_code":"games_video","raised":0.0,"city":"London","location":{"type":"Point","coordinates":[-0.1262362,51.5001524]},"pro_nearby":35},{"index":693,"name":"MessageSpace","founded_year":2006.0,"category_code":"advertising","raised":0.0,"city":"London","location":{"type":"Point","coordinates":[-0.1096216,51.5220744]},"pro_nearby":34},{"index":699,"name":"ResponseTek","founded_year":1999.0,"category_code":"software","raised":0.0,"city":"London","location":{"type":"Point","coordinates":[-0.1262362,51.5001524]},"pro_nearby":35},{"index":704,"name":"Adjug","founded_year":2007.0,"category_code":"advertising","raised":6.5,"city":"London","location":{"type":"Point","coordinates":[-0.1506897,51.5441671]},"pro_nearby":22},{"index":710,"name":"S3CRM","founded_year":2008.0,"category_code":"advertising","raised":0.0,"city":"Sheffield","location":{"type":"Point","coordinates":[-1.4647953,53.3830548]},"pro_nearby":1},{"index":712,"name":"Grapevine Talk","founded_year":2008.0,"category_code":"software","raised":0.0,"city":"London","location":{"type":"Point","coordinates":[-0.1262362,51.5001524]},"pro_nearby":35},{"index":658,"name":"Mobyko","founded_year":2006.0,"category_code":"mobile","raised":0.0,"city":"London","location":{"type":"Point","coordinates":[-0.137494,51.5124201]},"pro_nearby":37},{"index":660,"name":"Clowdy","founded_year":2013.0,"category_code":"web","raised":0.0,"city":"Manchester","location":{"type":"Point","coordinates":[-2.2439492,53.4837067]},"pro_nearby":1},{"index":714,"name":"Skipso","founded_year":2008.0,"category_code":"cleantech","raised":0.0,"city":"London","location":{"type":"Point","coordinates":[-0.1168286,51.5206245]},"pro_nearby":34},{"index":718,"name":"4AdNetworks","founded_year":null,"category_code":"software","raised":0.0,"city":"London","location":{"type":"Point","coordinates":[-0.1338595,51.5201597]},"pro_nearby":35},{"index":741,"name":"t5m","founded_year":2007.0,"category_code":"other","raised":0.0,"city":"","location":{"type":"Point","coordinates":[-0.1426922,51.5145168]},"pro_nearby":38},{"index":742,"name":"SupplierSelect","founded_year":2005.0,"category_code":"web","raised":0.0,"city":"London","location":{"type":"Point","coordinates":[-0.1427993,51.5137321]},"pro_nearby":38},{"index":743,"name":"mydeco","founded_year":2007.0,"category_code":"web","raised":15.625,"city":"London","location":{"type":"Point","coordinates":[-0.468617,51.518101]},"pro_nearby":1},{"index":745,"name":"Aconex","founded_year":2000.0,"category_code":"software","raised":85.0,"city":"London","location":{"type":"Point","coordinates":[-0.1200848,51.5117478]},"pro_nearby":35},{"index":748,"name":"EasyDate","founded_year":2002.0,"category_code":"other","raised":0.0,"city":"Edinburgh","location":{"type":"Point","coordinates":[-3.2151393,55.9485591]},"pro_nearby":1},{"index":757,"name":"Clarabridge","founded_year":2005.0,"category_code":"enterprise","raised":84.3,"city":"London","location":{"type":"Point","coordinates":[-0.2617681,51.4918451]},"pro_nearby":4},{"index":764,"name":"LeadPoint","founded_year":2004.0,"category_code":"enterprise","raised":12.5,"city":"London","location":{"type":"Point","coordinates":[-0.1410218,51.5177117]},"pro_nearby":37},{"index":771,"name":"Demotix","founded_year":2008.0,"category_code":"web","raised":0.0,"city":"London","location":{"type":"Point","coordinates":[-0.2065907,51.5374249]},"pro_nearby":8},{"index":774,"name":"Make It Rain","founded_year":2008.0,"category_code":"advertising","raised":0.0,"city":"London","location":{"type":"Point","coordinates":[-0.139082,51.4626]},"pro_nearby":9},{"index":730,"name":"Ivoire Consultancy","founded_year":2007.0,"category_code":"consulting","raised":0.0,"city":"Bristol","location":{"type":"Point","coordinates":[-2.5949734,51.4348382]},"pro_nearby":2},{"index":728,"name":"3C Limited","founded_year":2007.0,"category_code":"web","raised":0.0,"city":"London","location":{"type":"Point","coordinates":[-0.104579,51.5026763]},"pro_nearby":34},{"index":780,"name":"Kramaley Games","founded_year":2008.0,"category_code":"games_video","raised":0.0,"city":"London","location":{"type":"Point","coordinates":[-0.1479318,51.4944999]},"pro_nearby":35},{"index":776,"name":"CareerPlayer","founded_year":2008.0,"category_code":"games_video","raised":0.0,"city":"London","location":{"type":"Point","coordinates":[-0.1262362,51.5001524]},"pro_nearby":35},{"index":783,"name":"storm ideas","founded_year":2008.0,"category_code":"enterprise","raised":0.0,"city":"Edinburgh","location":{"type":"Point","coordinates":[-3.2044645,55.9581361]},"pro_nearby":1},{"index":785,"name":"Quick TV","founded_year":2007.0,"category_code":"enterprise","raised":3.613,"city":"Newcastle Upon Tyne","location":{"type":"Point","coordinates":[-1.6194034,54.971065]},"pro_nearby":1},{"index":785,"name":"Quick TV","founded_year":2007.0,"category_code":"enterprise","raised":3.613,"city":"London","location":{"type":"Point","coordinates":[-0.1392765,51.5115309]},"pro_nearby":37},{"index":788,"name":"Filmed Media","founded_year":2008.0,"category_code":"games_video","raised":0.0,"city":"London","location":{"type":"Point","coordinates":[-0.2055081,51.5359008]},"pro_nearby":8},{"index":787,"name":"BrightTALK","founded_year":2002.0,"category_code":"software","raised":20.5,"city":"London","location":{"type":"Point","coordinates":[-0.0970749,51.5157682]},"pro_nearby":34},{"index":794,"name":"BizAps","founded_year":null,"category_code":"web","raised":0.0,"city":"London","location":{"type":"Point","coordinates":[-0.2730612,51.4926213]},"pro_nearby":2},{"index":797,"name":"estatecreate","founded_year":2008.0,"category_code":"public_relations","raised":0.0,"city":"London","location":{"type":"Point","coordinates":[-0.166813,51.5186196]},"pro_nearby":31},{"index":799,"name":"QuickPlay Media","founded_year":2003.0,"category_code":"enterprise","raised":138.0,"city":"London","location":{"type":"Point","coordinates":[-0.281845,51.491028]},"pro_nearby":2},{"index":813,"name":"DemandTec","founded_year":1999.0,"category_code":"software","raised":6.0,"city":"London","location":{"type":"Point","coordinates":[-0.1249337,51.5069206]},"pro_nearby":35},{"index":815,"name":"WeDoCreative","founded_year":2006.0,"category_code":"consulting","raised":0.0,"city":"London","location":{"type":"Point","coordinates":[-0.1364327,51.4993689]},"pro_nearby":36},{"index":822,"name":"Emoshape","founded_year":2007.0,"category_code":"software","raised":0.0,"city":"London","location":{"type":"Point","coordinates":[-0.1158832,51.5123833]},"pro_nearby":34},{"index":836,"name":"Team Rubber","founded_year":2001.0,"category_code":"advertising","raised":0.0,"city":"London","location":{"type":"Point","coordinates":[-0.1316318,51.5137373]},"pro_nearby":36},{"index":837,"name":"Ruby50","founded_year":2008.0,"category_code":"public_relations","raised":0.0,"city":"Croydon","location":{"type":"Point","coordinates":[-0.1855258,51.5174054]},"pro_nearby":25},{"index":846,"name":"Civolution","founded_year":2008.0,"category_code":"security","raised":0.0,"city":"London","location":{"type":"Point","coordinates":[-0.1253299,51.514653]},"pro_nearby":35},{"index":823,"name":"Cobra Mobile","founded_year":null,"category_code":"mobile","raised":0.0,"city":"Dundee, Scotland","location":{"type":"Point","coordinates":[-2.9765094,56.4585402]},"pro_nearby":2},{"index":847,"name":"Shutl","founded_year":2009.0,"category_code":"ecommerce","raised":9.575,"city":"London","location":{"type":"Point","coordinates":[-0.1020265,51.5196135]},"pro_nearby":34},{"index":848,"name":"Localphone","founded_year":2007.0,"category_code":"mobile","raised":0.0,"city":"Sheffield","location":{"type":"Point","coordinates":[-1.470047,53.3839456]},"pro_nearby":1},{"index":850,"name":"Masabi","founded_year":2001.0,"category_code":"mobile","raised":8.8,"city":"London","location":{"type":"Point","coordinates":[-0.0965536,51.503753]},"pro_nearby":33},{"index":851,"name":"Showtime Studios","founded_year":2008.0,"category_code":"public_relations","raised":0.0,"city":"Birmingham","location":{"type":"Point","coordinates":[-1.9023414,52.4869442]},"pro_nearby":2},{"index":844,"name":"Tata Communications","founded_year":1972.0,"category_code":"other","raised":0.0,"city":"London","location":{"type":"Point","coordinates":[-0.08665,51.5139146]},"pro_nearby":31},{"index":790,"name":"People for Earth","founded_year":2008.0,"category_code":"other","raised":0.0,"city":"London","location":{"type":"Point","coordinates":[-0.1262362,51.5001524]},"pro_nearby":35},{"index":858,"name":"TwistedTree","founded_year":null,"category_code":"consulting","raised":0.0,"city":"London","location":{"type":"Point","coordinates":[-0.1262362,51.5001524]},"pro_nearby":35},{"index":857,"name":"Rassami","founded_year":2003.0,"category_code":"consulting","raised":0.0,"city":"London","location":{"type":"Point","coordinates":[-0.1262362,51.5001524]},"pro_nearby":35},{"index":859,"name":"WANdisco","founded_year":2005.0,"category_code":"software","raised":45.0,"city":"Sheffield","location":{"type":"Point","coordinates":[-1.4629301,53.3800107]},"pro_nearby":1},{"index":863,"name":"VouChaCha","founded_year":2009.0,"category_code":"mobile","raised":0.0,"city":"London","location":{"type":"Point","coordinates":[-0.1262362,51.5001524]},"pro_nearby":35},{"index":865,"name":"ITI Scotland","founded_year":2003.0,"category_code":"other","raised":0.0,"city":"Glasgow","location":{"type":"Point","coordinates":[-4.259505,55.8627073]},"pro_nearby":2},{"index":867,"name":"Icreon Communications","founded_year":2000.0,"category_code":"software","raised":0.0,"city":"London","location":{"type":"Point","coordinates":[-0.1614896,51.4647321]},"pro_nearby":10},{"index":868,"name":"The PODFather","founded_year":2008.0,"category_code":"enterprise","raised":0.0,"city":"Edinburgh","location":{"type":"Point","coordinates":[-3.1834833,55.94962]},"pro_nearby":1},{"index":870,"name":"eModeration","founded_year":2002.0,"category_code":"other","raised":0.0,"city":"London","location":{"type":"Point","coordinates":[-0.1065551,51.5195795]},"pro_nearby":34},{"index":871,"name":"WIT Software","founded_year":2001.0,"category_code":"software","raised":0.0,"city":"Reading","location":{"type":"Point","coordinates":[-0.9354555,51.4416686]},"pro_nearby":5},{"index":853,"name":"AfterWorkDeals","founded_year":2008.0,"category_code":"mobile","raised":0.0,"city":"London","location":{"type":"Point","coordinates":[-0.1886272,51.4918635]},"pro_nearby":23},{"index":856,"name":"Online CC","founded_year":1998.0,"category_code":"advertising","raised":0.0,"city":"London","location":{"type":"Point","coordinates":[-0.1033237,51.5312232]},"pro_nearby":34},{"index":871,"name":"WIT Software","founded_year":2001.0,"category_code":"software","raised":0.0,"city":"Reading","location":{"type":"Point","coordinates":[-0.9354555,51.4416686]},"pro_nearby":5},{"index":872,"name":"ShopCorn UK","founded_year":2008.0,"category_code":"ecommerce","raised":0.0,"city":"Watford","location":{"type":"Point","coordinates":[-0.3982031,51.6548556]},"pro_nearby":1},{"index":877,"name":"Neutron Creations","founded_year":2008.0,"category_code":"consulting","raised":0.0,"city":"London","location":{"type":"Point","coordinates":[-0.1597092,51.519772]},"pro_nearby":35},{"index":892,"name":"FreshNetworks","founded_year":2007.0,"category_code":"software","raised":0.0,"city":"London","location":{"type":"Point","coordinates":[-0.11796,51.5178123]},"pro_nearby":34},{"index":895,"name":"Mendeley","founded_year":2008.0,"category_code":"social","raised":2.13,"city":"London","location":{"type":"Point","coordinates":[-0.1046546,51.5224267]},"pro_nearby":34},{"index":896,"name":"Concrete","founded_year":2003.0,"category_code":"software","raised":0.0,"city":"London","location":{"type":"Point","coordinates":[-0.1010535,51.5232255]},"pro_nearby":34},{"index":897,"name":"VisConPro","founded_year":2002.0,"category_code":"ecommerce","raised":0.312,"city":"London","location":{"type":"Point","coordinates":[-0.11394,51.5763088]},"pro_nearby":1},{"index":901,"name":"TranZfinity","founded_year":2008.0,"category_code":"mobile","raised":0.0,"city":"London","location":{"type":"Point","coordinates":[-0.1249337,51.5069206]},"pro_nearby":35},{"index":902,"name":"AllYearbooks","founded_year":2004.0,"category_code":"web","raised":0.0,"city":"Cambridge","location":{"type":"Point","coordinates":[0.1380852,52.1992891]},"pro_nearby":2},{"index":879,"name":"TVF Communications","founded_year":1983.0,"category_code":"consulting","raised":0.0,"city":"London","location":{"type":"Point","coordinates":[-0.1033237,51.5312232]},"pro_nearby":34},{"index":913,"name":"Cognitive Match","founded_year":2009.0,"category_code":"advertising","raised":10.2,"city":"London","location":{"type":"Point","coordinates":[-0.0936688,51.5119418]},"pro_nearby":33},{"index":917,"name":"rent2friend","founded_year":2009.0,"category_code":"web","raised":0.0,"city":"London","location":{"type":"Point","coordinates":[-0.1262362,51.5001524]},"pro_nearby":35},{"index":920,"name":"izeezi","founded_year":null,"category_code":"software","raised":0.0,"city":"CHIPPENHAM","location":{"type":"Point","coordinates":[-2.106256,51.448232]},"pro_nearby":1},{"index":924,"name":"Sentry Parental Controls","founded_year":2008.0,"category_code":"software","raised":0.0,"city":"Manchester","location":{"type":"Point","coordinates":[-2.2550847,53.5195474]},"pro_nearby":1},{"index":904,"name":"Last Post Limited","founded_year":null,"category_code":"other","raised":0.0,"city":"London","location":{"type":"Point","coordinates":[-0.1043766,51.5270568]},"pro_nearby":34},{"index":926,"name":"ePartners","founded_year":1992.0,"category_code":"software","raised":25.0,"city":"London","location":{"type":"Point","coordinates":[-0.0865272,51.5123703]},"pro_nearby":32},{"index":929,"name":"Atraverda","founded_year":2005.0,"category_code":"cleantech","raised":20.75,"city":"Abertillery, Gwent,","location":{"type":"Point","coordinates":[-82.2927796,23.066066]},"pro_nearby":1},{"index":941,"name":"Abacus e-Media","founded_year":1977.0,"category_code":"software","raised":2.812,"city":"London","location":{"type":"Point","coordinates":[-0.1335871,51.5088058]},"pro_nearby":36},{"index":932,"name":"BioVex","founded_year":2006.0,"category_code":"biotech","raised":122.0,"city":"Oxon","location":{"type":"Point","coordinates":[-1.289082,51.671711]},"pro_nearby":1},{"index":923,"name":"Masterpiece","founded_year":1999.0,"category_code":"advertising","raised":0.0,"city":"London","location":{"type":"Point","coordinates":[-0.0833747,51.5219131]},"pro_nearby":30},{"index":944,"name":"Sift","founded_year":1996.0,"category_code":"software","raised":4.675,"city":"Bristol","location":{"type":"Point","coordinates":[-2.5869272,51.451168]},"pro_nearby":2},{"index":946,"name":"Surfkitchen","founded_year":1999.0,"category_code":"mobile","raised":12.0,"city":"Reading","location":{"type":"Point","coordinates":[-0.9862367,51.4245551]},"pro_nearby":3},{"index":951,"name":"Studentbox","founded_year":2008.0,"category_code":"other","raised":0.0,"city":"London","location":{"type":"Point","coordinates":[-0.0921218,51.5292245]},"pro_nearby":33},{"index":943,"name":"RadioScape","founded_year":1996.0,"category_code":"hardware","raised":19.5,"city":"London","location":{"type":"Point","coordinates":[-0.1442311,51.5249464]},"pro_nearby":37},{"index":957,"name":"Subzero Software","founded_year":2008.0,"category_code":"mobile","raised":0.0,"city":"London","location":{"type":"Point","coordinates":[-0.1080873,51.5347897]},"pro_nearby":34},{"index":958,"name":"Boring","founded_year":2007.0,"category_code":"other","raised":0.0,"city":"London","location":{"type":"Point","coordinates":[-0.0740678,51.5183725]},"pro_nearby":32},{"index":959,"name":"Verisim","founded_year":2001.0,"category_code":"software","raised":1.5,"city":"Edinburgh","location":{"type":"Point","coordinates":[-3.3090825,55.934152]},"pro_nearby":1},{"index":961,"name":"Holiday Watchdog","founded_year":2004.0,"category_code":"web","raised":0.0,"city":"London","location":{"type":"Point","coordinates":[-0.1327293,51.5151513]},"pro_nearby":36},{"index":962,"name":"Zinwave","founded_year":2005.0,"category_code":"mobile","raised":18.875,"city":"Cambridge","location":{"type":"Point","coordinates":[0.0732335,52.1367844]},"pro_nearby":1},{"index":954,"name":"JoggingBuddy","founded_year":2008.0,"category_code":"web","raised":0.0,"city":"Cambridge","location":{"type":"Point","coordinates":[0.1312368,52.2025441]},"pro_nearby":2},{"index":887,"name":"Corebridge","founded_year":2004.0,"category_code":"software","raised":0.0,"city":"London","location":{"type":"Point","coordinates":[-0.1457395,51.5051974]},"pro_nearby":36},{"index":969,"name":"Solarenergy-solarpower","founded_year":2007.0,"category_code":"consulting","raised":0.0,"city":"London","location":{"type":"Point","coordinates":[-0.0741379,51.4843838]},"pro_nearby":27},{"index":971,"name":"Lingo24","founded_year":2001.0,"category_code":"public_relations","raised":0.0,"city":"London","location":{"type":"Point","coordinates":[-0.1405204,51.518365]},"pro_nearby":37},{"index":971,"name":"Lingo24","founded_year":2001.0,"category_code":"public_relations","raised":0.0,"city":"Edinburgh","location":{"type":"Point","coordinates":[-3.2084985,55.953152]},"pro_nearby":1},{"index":975,"name":"Musicmetric","founded_year":2008.0,"category_code":"music","raised":4.25,"city":"London","location":{"type":"Point","coordinates":[-0.0856982,51.5253765]},"pro_nearby":32},{"index":977,"name":"ControlCircle","founded_year":2001.0,"category_code":"network_hosting","raised":7.5,"city":"London","location":{"type":"Point","coordinates":[-0.0178689,51.5003204]},"pro_nearby":4},{"index":981,"name":"upad","founded_year":2008.0,"category_code":"web","raised":0.0,"city":"London","location":{"type":"Point","coordinates":[-0.2023958,51.5382894]},"pro_nearby":9},{"index":963,"name":"Zoombu","founded_year":2008.0,"category_code":"search","raised":0.0,"city":"London","location":{"type":"Point","coordinates":[-0.1262362,51.5001524]},"pro_nearby":35},{"index":986,"name":"Aspects Software","founded_year":1986.0,"category_code":"mobile","raised":21.25,"city":"","location":{"type":"Point","coordinates":[-3.186156,55.957569]},"pro_nearby":1},{"index":979,"name":"Altaine","founded_year":2002.0,"category_code":"mobile","raised":0.0,"city":"London","location":{"type":"Point","coordinates":[-0.1262362,51.5001524]},"pro_nearby":35},{"index":990,"name":"TV Pixie","founded_year":2009.0,"category_code":"web","raised":0.055,"city":"London","location":{"type":"Point","coordinates":[-0.1852079,51.5206682]},"pro_nearby":25},{"index":994,"name":"Broadersheet","founded_year":2009.0,"category_code":"web","raised":0.0,"city":"Cambridge","location":{"type":"Point","coordinates":[0.1312368,52.2025441]},"pro_nearby":2},{"index":1000,"name":"Hostway","founded_year":1998.0,"category_code":"network_hosting","raised":110.0,"city":"London","location":{"type":"Point","coordinates":[-0.0147395,51.4992488]},"pro_nearby":3},{"index":1001,"name":"watercompare","founded_year":2008.0,"category_code":"web","raised":0.0,"city":"london","location":{"type":"Point","coordinates":[-0.1262362,51.5001524]},"pro_nearby":35},{"index":1003,"name":"Specle","founded_year":2006.0,"category_code":"advertising","raised":1.121,"city":"London","location":{"type":"Point","coordinates":[-0.1067217,51.5080607]},"pro_nearby":35},{"index":991,"name":"Swiffen","founded_year":2008.0,"category_code":"games_video","raised":0.0,"city":"London","location":{"type":"Point","coordinates":[-0.0828173,51.5163382]},"pro_nearby":32},{"index":993,"name":"Plug in SEO","founded_year":2012.0,"category_code":"enterprise","raised":0.0,"city":"London","location":{"type":"Point","coordinates":[-0.1262362,51.5001524]},"pro_nearby":35},{"index":1008,"name":"Folia","founded_year":2007.0,"category_code":"web","raised":0.0,"city":"","location":{"type":"Point","coordinates":[-0.1867769,51.5450909]},"pro_nearby":10},{"index":1013,"name":"Tweenjo","founded_year":2009.0,"category_code":"web","raised":0.0,"city":"London","location":{"type":"Point","coordinates":[-0.1459893,51.5137747]},"pro_nearby":38},{"index":1016,"name":"Space Spare","founded_year":2009.0,"category_code":"web","raised":0.0,"city":"London","location":{"type":"Point","coordinates":[-0.1365725,51.5603951]},"pro_nearby":8},{"index":1018,"name":"Stream57","founded_year":1998.0,"category_code":"software","raised":0.0,"city":"London","location":{"type":"Point","coordinates":[-0.1346112,51.5149197]},"pro_nearby":36},{"index":1020,"name":"Marmalade on Toast","founded_year":null,"category_code":"public_relations","raised":0.0,"city":"London","location":{"type":"Point","coordinates":[-0.1262362,51.5001524]},"pro_nearby":35},{"index":1021,"name":"Serious Parody","founded_year":null,"category_code":"games_video","raised":1.25,"city":"Dundee","location":{"type":"Point","coordinates":[-2.970721,56.462018]},"pro_nearby":2},{"index":1025,"name":"Ayima","founded_year":2007.0,"category_code":"search","raised":0.0,"city":"London","location":{"type":"Point","coordinates":[-0.1036021,51.5211504]},"pro_nearby":34},{"index":1017,"name":"Ventoria","founded_year":null,"category_code":"ecommerce","raised":0.0,"city":"London","location":{"type":"Point","coordinates":[-0.1043766,51.5270568]},"pro_nearby":34},{"index":1048,"name":"Huge","founded_year":1999.0,"category_code":"consulting","raised":0.0,"city":"London","location":{"type":"Point","coordinates":[-0.1652217,51.4920878]},"pro_nearby":26},{"index":1049,"name":"EPAM Systems","founded_year":1993.0,"category_code":"software","raised":50.0,"city":"London","location":{"type":"Point","coordinates":[-0.0881016,51.5154835]},"pro_nearby":32},{"index":1031,"name":"Bluewolf","founded_year":2000.0,"category_code":"consulting","raised":0.0,"city":"Reading, Berkshire","location":{"type":"Point","coordinates":[-0.8994375,51.4373027]},"pro_nearby":2},{"index":1060,"name":"Promotion Space Group","founded_year":2003.0,"category_code":"advertising","raised":0.0,"city":"London","location":{"type":"Point","coordinates":[-0.1356064,51.49695]},"pro_nearby":36},{"index":1070,"name":"Eglue Business Technologies","founded_year":2001.0,"category_code":"software","raised":27.0,"city":"London","location":{"type":"Point","coordinates":[-0.1392765,51.5115309]},"pro_nearby":37},{"index":1071,"name":"Corvil","founded_year":2000.0,"category_code":"other","raised":31.5,"city":"London","location":{"type":"Point","coordinates":[-0.0828519,51.5175331]},"pro_nearby":31},{"index":1084,"name":"Aria Networks","founded_year":2005.0,"category_code":"software","raised":9.05,"city":"Chippenham","location":{"type":"Point","coordinates":[-2.1334555,51.4515283]},"pro_nearby":1},{"index":1055,"name":"Netbiscuits","founded_year":2000.0,"category_code":"mobile","raised":27.0,"city":"London","location":{"type":"Point","coordinates":[-0.1547377,51.513248]},"pro_nearby":37},{"index":1087,"name":"Garlik","founded_year":2005.0,"category_code":"software","raised":24.7,"city":"Richmond","location":{"type":"Point","coordinates":[-0.295441,51.462108]},"pro_nearby":2},{"index":1104,"name":"Zensify","founded_year":2006.0,"category_code":"web","raised":0.0,"city":"London","location":{"type":"Point","coordinates":[-0.146659,51.4940757]},"pro_nearby":34},{"index":1097,"name":"Ruby Mill","founded_year":null,"category_code":"other","raised":0.0,"city":"London","location":{"type":"Point","coordinates":[-0.0952651,51.528933]},"pro_nearby":34},{"index":1072,"name":"Breakaway Communications","founded_year":2004.0,"category_code":"public_relations","raised":0.0,"city":"London","location":{"type":"Point","coordinates":[-0.1379199,51.5755277]},"pro_nearby":2},{"index":1111,"name":"Autoquake","founded_year":2005.0,"category_code":"ecommerce","raised":39.9,"city":"London","location":{"type":"Point","coordinates":[-0.172364,51.543337]},"pro_nearby":16},{"index":1116,"name":"Infoflow","founded_year":2006.0,"category_code":"software","raised":0.457,"city":"Sheffield","location":{"type":"Point","coordinates":[-0.3027629,51.4624198]},"pro_nearby":2},{"index":1118,"name":"1Scan","founded_year":2004.0,"category_code":"other","raised":0.0,"city":"Brentwood","location":{"type":"Point","coordinates":[0.3048195,51.6243061]},"pro_nearby":1},{"index":1121,"name":"Real Time Content","founded_year":2006.0,"category_code":"advertising","raised":0.0,"city":"London","location":{"type":"Point","coordinates":[-0.1424094,51.5209358]},"pro_nearby":37},{"index":1125,"name":"Rapid Action Packaging","founded_year":1997.0,"category_code":"cleantech","raised":7.92,"city":"London","location":{"type":"Point","coordinates":[-0.2611303,51.4698433]},"pro_nearby":2},{"index":1130,"name":"Schway","founded_year":2007.0,"category_code":"ecommerce","raised":0.0,"city":"London","location":{"type":"Point","coordinates":[-0.1361616,51.519816]},"pro_nearby":36},{"index":1108,"name":"Warwick Warp","founded_year":null,"category_code":"software","raised":1.19,"city":"Coventry","location":{"type":"Point","coordinates":[-1.558831,52.3867537]},"pro_nearby":1},{"index":1139,"name":"Go Test It","founded_year":2007.0,"category_code":"network_hosting","raised":0.0,"city":"Cambridge","location":{"type":"Point","coordinates":[0.1987426,52.1963733]},"pro_nearby":1},{"index":1152,"name":"Zookel","founded_year":2008.0,"category_code":"web","raised":0.0,"city":"London","location":{"type":"Point","coordinates":[-0.0994596,51.5203268]},"pro_nearby":34},{"index":1156,"name":"isango!","founded_year":2006.0,"category_code":"web","raised":8.0,"city":"London","location":{"type":"Point","coordinates":[-0.1361616,51.519816]},"pro_nearby":36},{"index":1131,"name":"IntraWorlds","founded_year":2002.0,"category_code":"software","raised":0.0,"city":"London","location":{"type":"Point","coordinates":[-0.1065563,51.5033235]},"pro_nearby":34},{"index":1035,"name":"Red Engineering Design","founded_year":2004.0,"category_code":"consulting","raised":0.0,"city":"London","location":{"type":"Point","coordinates":[-0.1398614,51.5234209]},"pro_nearby":37},{"index":1163,"name":"Netsize","founded_year":1998.0,"category_code":"mobile","raised":16.8,"city":"London","location":{"type":"Point","coordinates":[-0.1262362,51.5001524]},"pro_nearby":35},{"index":1166,"name":"Adeye Mobile","founded_year":2007.0,"category_code":"advertising","raised":0.0,"city":"London","location":{"type":"Point","coordinates":[-0.1297711,51.515129]},"pro_nearby":35},{"index":1167,"name":"Tribold","founded_year":2003.0,"category_code":"software","raised":28.1,"city":"London","location":{"type":"Point","coordinates":[-0.1424094,51.5209358]},"pro_nearby":37},{"index":1168,"name":"Padz","founded_year":2008.0,"category_code":"search","raised":0.0,"city":"London","location":{"type":"Point","coordinates":[-0.1153003,51.5220763]},"pro_nearby":34},{"index":1158,"name":"Bar Exchange","founded_year":2009.0,"category_code":"web","raised":0.0,"city":"London","location":{"type":"Point","coordinates":[-0.1525048,51.5395914]},"pro_nearby":32},{"index":1171,"name":"TextMagic","founded_year":2001.0,"category_code":"mobile","raised":0.0,"city":"Cambridge","location":{"type":"Point","coordinates":[0.1312368,52.2025441]},"pro_nearby":2},{"index":1172,"name":"Tug","founded_year":2006.0,"category_code":"search","raised":0.0,"city":"London","location":{"type":"Point","coordinates":[-0.0830772,51.5246619]},"pro_nearby":30},{"index":1177,"name":"The Hyperwords Company","founded_year":null,"category_code":"web","raised":0.0,"city":"London","location":{"type":"Point","coordinates":[-0.1356915,51.5114438]},"pro_nearby":36},{"index":1184,"name":"AgreeYourFee","founded_year":2009.0,"category_code":"advertising","raised":0.0,"city":"London","location":{"type":"Point","coordinates":[-0.1262362,51.5001524]},"pro_nearby":35},{"index":1194,"name":"whatjobsite","founded_year":2006.0,"category_code":"other","raised":0.0,"city":"London","location":{"type":"Point","coordinates":[-0.1262362,51.5001524]},"pro_nearby":35},{"index":1199,"name":"Bandstocks","founded_year":null,"category_code":"games_video","raised":0.0,"city":"London","location":{"type":"Point","coordinates":[-0.1261853,51.5142132]},"pro_nearby":35},{"index":1200,"name":"Comufy","founded_year":2009.0,"category_code":"public_relations","raised":0.0,"city":"London","location":{"type":"Point","coordinates":[-0.1153003,51.5220763]},"pro_nearby":34},{"index":1201,"name":"LearningMate","founded_year":2003.0,"category_code":"software","raised":0.0,"city":"London","location":{"type":"Point","coordinates":[-0.1169935,51.5241069]},"pro_nearby":34},{"index":1202,"name":"oneDrum","founded_year":2008.0,"category_code":"enterprise","raised":1.25,"city":"London","location":{"type":"Point","coordinates":[-0.1262362,51.5001524]},"pro_nearby":35},{"index":1203,"name":"BioMed Central","founded_year":2000.0,"category_code":"ecommerce","raised":0.0,"city":"London","location":{"type":"Point","coordinates":[-0.111509,51.5186118]},"pro_nearby":34},{"index":1180,"name":"Greenvoice","founded_year":2007.0,"category_code":"web","raised":0.0,"city":"London","location":{"type":"Point","coordinates":[-0.0874239,51.5147349]},"pro_nearby":32},{"index":1215,"name":"PicFog","founded_year":2009.0,"category_code":"search","raised":0.0,"city":"London","location":{"type":"Point","coordinates":[-0.2867703,51.4770982]},"pro_nearby":2},{"index":1213,"name":"YCD Multimedia","founded_year":1999.0,"category_code":"software","raised":32.5,"city":"Glasgow","location":{"type":"Point","coordinates":[-4.2689907,55.8530195]},"pro_nearby":2},{"index":1224,"name":"Holdsworth Associates","founded_year":null,"category_code":"public_relations","raised":0.0,"city":"Cambridge","location":{"type":"Point","coordinates":[0.119827,52.20597]},"pro_nearby":2},{"index":1228,"name":"Keen Software House","founded_year":2007.0,"category_code":"games_video","raised":0.0,"city":"London","location":{"type":"Point","coordinates":[-0.1153003,51.5220763]},"pro_nearby":34},{"index":1230,"name":"PostalMethods","founded_year":1996.0,"category_code":"public_relations","raised":0.0,"city":"London","location":{"type":"Point","coordinates":[-0.143398,51.4940898]},"pro_nearby":34},{"index":1237,"name":"Myhive","founded_year":2009.0,"category_code":"mobile","raised":0.0,"city":"London","location":{"type":"Point","coordinates":[-0.1996418,51.5514688]},"pro_nearby":4},{"index":1196,"name":"Enternships","founded_year":2009.0,"category_code":"web","raised":0.0,"city":"London","location":{"type":"Point","coordinates":[-0.1038219,51.5215279]},"pro_nearby":34},{"index":1204,"name":"Smarta","founded_year":null,"category_code":"enterprise","raised":0.0,"city":"London","location":{"type":"Point","coordinates":[-0.1326886,51.5201309]},"pro_nearby":35},{"index":1239,"name":"Layer 7 Technologies","founded_year":2003.0,"category_code":"software","raised":19.9,"city":"Surrey","location":{"type":"Point","coordinates":[-0.5813902,51.2357089]},"pro_nearby":1},{"index":1241,"name":"FireScope","founded_year":2006.0,"category_code":"software","raised":9.91,"city":"London","location":{"type":"Point","coordinates":[-0.1262362,51.5001524]},"pro_nearby":35},{"index":1254,"name":"OmPrompt","founded_year":null,"category_code":"enterprise","raised":1.25,"city":"Oxfordshire","location":{"type":"Point","coordinates":[-1.289082,51.671711]},"pro_nearby":1},{"index":1243,"name":"DoTradeEasy","founded_year":2008.0,"category_code":"advertising","raised":0.0,"city":"London","location":{"type":"Point","coordinates":[-0.1043766,51.5270568]},"pro_nearby":34},{"index":1268,"name":"Lateral Net","founded_year":null,"category_code":"public_relations","raised":0.0,"city":"London","location":{"type":"Point","coordinates":[-0.1420176,51.5185322]},"pro_nearby":37},{"index":1270,"name":"FNZ","founded_year":2003.0,"category_code":"finance","raised":0.0,"city":"London","location":{"type":"Point","coordinates":[-0.1198244,51.5112139]},"pro_nearby":35},{"index":1247,"name":"Struq","founded_year":2008.0,"category_code":"advertising","raised":8.5,"city":"London","location":{"type":"Point","coordinates":[-0.1366861,51.5152023]},"pro_nearby":37},{"index":1285,"name":"flexjex","founded_year":2008.0,"category_code":"public_relations","raised":0.0,"city":"Cambridge","location":{"type":"Point","coordinates":[0.1312368,52.2025441]},"pro_nearby":2},{"index":1284,"name":"Central Test","founded_year":null,"category_code":"other","raised":0.941,"city":"LONDON","location":{"type":"Point","coordinates":[-0.1342151,51.5180538]},"pro_nearby":36},{"index":1288,"name":"Testplant","founded_year":2008.0,"category_code":"software","raised":2.56,"city":"London","location":{"type":"Point","coordinates":[-0.1037742,51.517356]},"pro_nearby":34},{"index":1290,"name":"famebook","founded_year":2008.0,"category_code":"web","raised":0.0,"city":"London","location":{"type":"Point","coordinates":[-0.1262362,51.5001524]},"pro_nearby":35},{"index":1305,"name":"Pufferfish","founded_year":2004.0,"category_code":"other","raised":0.63,"city":"Edinburgh","location":{"type":"Point","coordinates":[-3.1795482,55.9345905]},"pro_nearby":1},{"index":1280,"name":"ArcelorMittal","founded_year":null,"category_code":null,"raised":0.0,"city":"London","location":{"type":"Point","coordinates":[-0.146588,51.5096437]},"pro_nearby":36},{"index":1317,"name":"iomart Group","founded_year":2000.0,"category_code":"network_hosting","raised":0.0,"city":"London","location":{"type":"Point","coordinates":[-0.0846702,51.5231142]},"pro_nearby":31},{"index":1327,"name":"Block Shield","founded_year":2000.0,"category_code":"hardware","raised":0.0,"city":"London","location":{"type":"Point","coordinates":[-0.114374,51.5127901]},"pro_nearby":34},{"index":1329,"name":"acrossair","founded_year":2009.0,"category_code":"mobile","raised":0.0,"city":"London","location":{"type":"Point","coordinates":[-0.1165365,51.5177425]},"pro_nearby":34},{"index":1321,"name":"smartFOCUS","founded_year":1999.0,"category_code":"software","raised":30.0,"city":"Bristol","location":{"type":"Point","coordinates":[-2.5909744,51.4525116]},"pro_nearby":2},{"index":1245,"name":"Flirtomatic","founded_year":2006.0,"category_code":"social","raised":9.0,"city":"London","location":{"type":"Point","coordinates":[-0.0956262,51.5272363]},"pro_nearby":34}]