[{"index":0,"name":"Babelgum","founded_year":2007.0,"category_code":"games_video","raised":13.2,"city":"London","location":{"type":"Point","coordinates":[-6.267494,53.344104]}},{"index":1,"name":"AllPeers","founded_year":2004.0,"category_code":"web","raised":0.0,"city":"Oxford","location":{"type":"Point","coordinates":[-1.255824,51.752276]}},{"index":2,"name":"Zamzar","founded_year":2006.0,"category_code":"web","raised":0.0,"city":"Southampton","location":{"type":"Point","coordinates":[-1.3610845,50.9444598]}},{"index":3,"name":"KickApps","founded_year":2004.0,"category_code":"enterprise","raised":32.0,"city":"London","location":{"type":"Point","coordinates":[-0.1356235,51.5094731]}},{"index":4,"name":"Google","founded_year":1998.0,"category_code":"search","raised":555.0,"city":"Manchester","location":{"type":"Point","coordinates":[-2.250166,53.473606]}},{"index":5,"name":"ConnectMeAnywhere","founded_year":2006.0,"category_code":"web","raised":0.0,"city":"London W11 2HX","location":{"type":"Point","coordinates":[-0.205349,51.514935]}},{"index":6,"name":"LiveWorld","founded_year":1996.0,"category_code":"web","raised":0.0,"city":"London","location":{"type":"Point","coordinates":[-0.126236,51.500152]}},{"index":7,"name":"PowerReviews","founded_year":null,"category_code":"social","raised":40.1,"city":"London","location":{"type":"Point","coordinates":[-0.104408,51.527099]}},{"index":8,"name":"spigit","founded_year":2006.0,"category_code":"software","raised":55.6,"city":"London","location":{"type":"Point","coordinates":[-0.1394759,51.5170385]}},{"index":9,"name":"Curverider","founded_year":2005.0,"category_code":"network_hosting","raised":0.375,"city":"London","location":{"type":"Point","coordinates":[-1.197534,51.785428]}},{"index":10,"name":"Zopa","founded_year":2005.0,"category_code":"finance","raised":33.9,"city":"London","location":{"type":"Point","coordinates":[-0.139947,51.517904]}},{"index":11,"name":"Covestor","founded_year":2005.0,"category_code":"finance","raised":23.9,"city":"London","location":{"type":"Point","coordinates":[-0.1433689,51.5194201]}},{"index":12,"name":"ReachLocal","founded_year":2004.0,"category_code":"advertising","raised":68.1,"city":"London","location":{"type":"Point","coordinates":[-72.188584,41.53155]}},{"index":13,"name":"Lastminute","founded_year":1998.0,"category_code":"web","raised":0.0,"city":"London","location":{"type":"Point","coordinates":[-95.712891,37.09024]}},{"index":14,"name":"Seedcamp","founded_year":2007.0,"category_code":"finance","raised":5.45,"city":"London","location":{"type":"Point","coordinates":[-0.1418973,51.5108803]}},{"index":15,"name":"Adknowledge","founded_year":2004.0,"category_code":"advertising","raised":248.0,"city":"Covent Garden, London","location":{"type":"Point","coordinates":[-0.1229212,51.5114403]}},{"index":16,"name":"ITV","founded_year":null,"category_code":"web","raised":0.0,"city":"London","location":{"type":"Point","coordinates":[-95.712891,37.09024]}},{"index":17,"name":"Wonga","founded_year":2007.0,"category_code":"web","raised":101.0,"city":"London","location":{"type":"Point","coordinates":[-0.1626103,51.5192042]}},{"index":18,"name":"FAROO","founded_year":2007.0,"category_code":"search","raised":0.0,"city":"London","location":{"type":"Point","coordinates":[-0.1065551,51.5195795]}},{"index":19,"name":"Dopplr","founded_year":null,"category_code":"web","raised":0.0,"city":"London","location":{"type":"Point","coordinates":[-0.087432,51.523789]}},{"index":20,"name":"Webjam","founded_year":2006.0,"category_code":"enterprise","raised":2.0,"city":"London","location":{"type":"Point","coordinates":[-0.136174,51.519819]}},{"index":21,"name":"Jiglu","founded_year":2003.0,"category_code":"software","raised":0.8,"city":"London","location":{"type":"Point","coordinates":[-0.149522,51.54236]}},{"index":22,"name":"HereOrThere","founded_year":null,"category_code":"web","raised":0.0,"city":null,"location":{"type":"Point","coordinates":[-3.435973,55.378051]}},{"index":23,"name":"Tioti","founded_year":null,"category_code":"games_video","raised":0.0,"city":"London","location":{"type":"Point","coordinates":[-0.081169,51.524323]}},{"index":24,"name":"FlexiScale","founded_year":1997.0,"category_code":"network_hosting","raised":0.0,"city":"","location":{"type":"Point","coordinates":[-3.435973,55.378051]}},{"index":25,"name":"blinkbox","founded_year":2006.0,"category_code":"games_video","raised":0.0,"city":"London","location":{"type":"Point","coordinates":[-0.10759,51.520779]}},{"index":26,"name":"Songkick","founded_year":2007.0,"category_code":"music","raised":16.6,"city":"London","location":{"type":"Point","coordinates":[-0.0558343,51.54202]}},{"index":27,"name":"eXelate","founded_year":2007.0,"category_code":"advertising","raised":32.0,"city":"London","location":{"type":"Point","coordinates":[-0.1326786,51.5150129]}},{"index":28,"name":"Skinkers","founded_year":1999.0,"category_code":"software","raised":21.5,"city":"London","location":{"type":"Point","coordinates":[0.239866,51.604922]}},{"index":29,"name":"Evi","founded_year":2005.0,"category_code":"search","raised":3.25,"city":"Cambridge","location":{"type":"Point","coordinates":[0.130647,52.195668]}},{"index":30,"name":"Zmags","founded_year":2006.0,"category_code":"software","raised":20.8,"city":"London","location":{"type":"Point","coordinates":[-0.1247662,51.5111369]}},{"index":31,"name":"Techlightenment","founded_year":null,"category_code":"web","raised":0.0,"city":"London","location":{"type":"Point","coordinates":[-0.126236,51.500152]}},{"index":32,"name":"betNOW","founded_year":2005.0,"category_code":"web","raised":5.0,"city":"London","location":{"type":"Point","coordinates":[-0.126389,51.511599]}},{"index":33,"name":"Next2Friends","founded_year":null,"category_code":"web","raised":0.0,"city":null,"location":{"type":"Point","coordinates":[-3.435973,55.378051]}},{"index":34,"name":"VoxSwap","founded_year":null,"category_code":"network_hosting","raised":0.0,"city":"Uffington","location":{"type":"Point","coordinates":[-0.433389,52.656303]}},{"index":35,"name":"FriendsAbroad","founded_year":null,"category_code":"network_hosting","raised":0.0,"city":"London","location":{"type":"Point","coordinates":[-0.126236,51.500152]}},{"index":36,"name":"WAYN","founded_year":2002.0,"category_code":"network_hosting","raised":11.0,"city":"London","location":{"type":"Point","coordinates":[-0.126236,51.500152]}},{"index":37,"name":"UnLtdWorld","founded_year":2007.0,"category_code":"enterprise","raised":0.312,"city":"London","location":{"type":"Point","coordinates":[-0.0926903,51.522413]}},{"index":38,"name":"blinkbox music","founded_year":2007.0,"category_code":"music","raised":6.0,"city":"Oxford","location":{"type":"Point","coordinates":[-1.2063327,51.7319786]}},{"index":39,"name":"WorldTV","founded_year":2006.0,"category_code":"games_video","raised":1.0,"city":"London","location":{"type":"Point","coordinates":[-0.1262362,51.5001524]}},{"index":40,"name":"Seatwave","founded_year":2006.0,"category_code":"ecommerce","raised":53.0,"city":"London","location":{"type":"Point","coordinates":[-0.126236,51.500152]}},{"index":41,"name":"idiomag","founded_year":2006.0,"category_code":"games_video","raised":0.0,"city":"London","location":{"type":"Point","coordinates":[-0.126236,51.500152]}},{"index":42,"name":"ioko","founded_year":1996.0,"category_code":"software","raised":0.0,"city":"York","location":{"type":"Point","coordinates":[-1.045716,53.949714]}},{"index":43,"name":"VisitorNetworks","founded_year":2006.0,"category_code":"hardware","raised":0.0,"city":"Manchester","location":{"type":"Point","coordinates":[-2.318142,53.443183]}},{"index":44,"name":"Bragster","founded_year":2007.0,"category_code":"web","raised":3.5,"city":"London","location":{"type":"Point","coordinates":[-0.0766034,51.5220072]}},{"index":45,"name":"amiando","founded_year":2006.0,"category_code":"web","raised":0.0,"city":"London","location":{"type":"Point","coordinates":[-0.0836311,51.5248598]}},{"index":46,"name":"Betfair","founded_year":2000.0,"category_code":"web","raised":0.0,"city":"London","location":{"type":"Point","coordinates":[1.696829,52.4624161]}},{"index":47,"name":"cScape","founded_year":1996.0,"category_code":"web","raised":0.0,"city":"London","location":{"type":"Point","coordinates":[-0.107843,51.523676]}},{"index":48,"name":"Tipped","founded_year":2007.0,"category_code":"web","raised":0.0,"city":"London","location":{"type":"Point","coordinates":[-0.0778345,51.5211159]}},{"index":49,"name":"BBC","founded_year":1922.0,"category_code":"news","raised":0.0,"city":"London","location":{"type":"Point","coordinates":[-0.1437991,51.5185614]}},{"index":50,"name":"i-together","founded_year":null,"category_code":"web","raised":0.0,"city":"London","location":{"type":"Point","coordinates":[-0.155935,51.549687]}},{"index":51,"name":"ProofHQ","founded_year":2008.0,"category_code":"software","raised":0.0,"city":"London","location":{"type":"Point","coordinates":[-0.011154,51.5320478]}},{"index":52,"name":"NetIDme","founded_year":null,"category_code":"web","raised":0.0,"city":"East Kilbride","location":{"type":"Point","coordinates":[-4.169054,55.755378]}},{"index":53,"name":"My Neighbourhoods","founded_year":2006.0,"category_code":"network_hosting","raised":0.0,"city":"London","location":{"type":"Point","coordinates":[-0.083999,51.523307]}},{"index":54,"name":"Vovici","founded_year":2006.0,"category_code":"enterprise","raised":16.3,"city":"Kingston Upon Thames","location":{"type":"Point","coordinates":[-0.3016459,51.4140631]}},{"index":55,"name":"Skimlinks","founded_year":2006.0,"category_code":"advertising","raised":7.02,"city":"London","location":{"type":"Point","coordinates":[-0.084462,51.522727]}},{"index":56,"name":"Taylor Nelson Sofres","founded_year":1997.0,"category_code":"other","raised":0.0,"city":"London","location":{"type":"Point","coordinates":[-0.126236,51.500152]}},{"index":57,"name":"Cheapflights","founded_year":1996.0,"category_code":"public_relations","raised":0.0,"city":"London","location":{"type":"Point","coordinates":[-0.155478,51.520062]}},{"index":58,"name":"Arclight Media Technology","founded_year":2005.0,"category_code":"web","raised":0.0,"city":"London","location":{"type":"Point","coordinates":[0.404618,51.30077]}},{"index":59,"name":"Playfish","founded_year":2007.0,"category_code":"games_video","raised":21.0,"city":"London","location":{"type":"Point","coordinates":[-0.1984802,51.4991094]}},{"index":60,"name":"Wordki","founded_year":2008.0,"category_code":"web","raised":0.0,"city":"","location":{"type":"Point","coordinates":[-3.435973,55.378051]}},{"index":61,"name":"Buongiorno","founded_year":1999.0,"category_code":"mobile","raised":0.0,"city":"London","location":{"type":"Point","coordinates":[-0.082571,51.5232478]}},{"index":62,"name":"Slicethepie","founded_year":2007.0,"category_code":"games_video","raised":4.8,"city":"","location":{"type":"Point","coordinates":[-3.435973,55.378051]}},{"index":63,"name":"Glaxstar","founded_year":2000.0,"category_code":"software","raised":4.0,"city":"Birmingham","location":{"type":"Point","coordinates":[-1.903186,52.479554]}},{"index":64,"name":"Myrl","founded_year":null,"category_code":"web","raised":0.0,"city":"London","location":{"type":"Point","coordinates":[-0.126236,51.500152]}},{"index":65,"name":"Pikum","founded_year":2007.0,"category_code":"games_video","raised":5.92,"city":"London","location":{"type":"Point","coordinates":[-0.152998,51.539778]}},{"index":66,"name":"TJAT","founded_year":2006.0,"category_code":"mobile","raised":0.0,"city":"London","location":{"type":"Point","coordinates":[-0.108111,51.516594]}},{"index":67,"name":"Carsonified","founded_year":2004.0,"category_code":null,"raised":0.0,"city":"Bath","location":{"type":"Point","coordinates":[-2.365654,51.381732]}},{"index":68,"name":"7digital","founded_year":2004.0,"category_code":"music","raised":20.1,"city":"London","location":{"type":"Point","coordinates":[-0.083726,51.5254]}},{"index":69,"name":"Domegos","founded_year":2006.0,"category_code":"web","raised":0.0,"city":"Birmingham","location":{"type":"Point","coordinates":[-1.90985,52.490533]}},{"index":70,"name":"HelloTxt","founded_year":2007.0,"category_code":"web","raised":0.0,"city":"London","location":{"type":"Point","coordinates":[-0.0808503,51.5235368]}},{"index":71,"name":"Zemanta","founded_year":2007.0,"category_code":"web","raised":7.35,"city":"London","location":{"type":"Point","coordinates":[-0.0934254,51.5141566]}},{"index":72,"name":"Digital Sports Media","founded_year":2007.0,"category_code":"network_hosting","raised":0.0,"city":"","location":{"type":"Point","coordinates":[-3.435973,55.378051]}},{"index":73,"name":"Bango","founded_year":1999.0,"category_code":"mobile","raised":10.2,"city":"Cambridge","location":{"type":"Point","coordinates":[0.124024,52.2155382]}},{"index":74,"name":"Get the Point","founded_year":2006.0,"category_code":"web","raised":0.0,"city":"Edinburgh, Scotland","location":{"type":"Point","coordinates":[-3.201328,55.945399]}},{"index":75,"name":"Realtime Worlds","founded_year":2002.0,"category_code":"games_video","raised":82.8,"city":"Dundee","location":{"type":"Point","coordinates":[-2.968111,56.461428]}},{"index":76,"name":"Sososher","founded_year":2008.0,"category_code":"web","raised":0.0,"city":"London","location":{"type":"Point","coordinates":[-0.126236,51.500152]}},{"index":77,"name":"School of Everything","founded_year":2007.0,"category_code":"web","raised":0.438,"city":"London","location":{"type":"Point","coordinates":[-0.053981,51.528817]}},{"index":78,"name":"EMI Group","founded_year":1931.0,"category_code":null,"raised":0.0,"city":"London","location":{"type":"Point","coordinates":[-0.192627,51.49948]}},{"index":79,"name":"Kublax","founded_year":2007.0,"category_code":"web","raised":1.09,"city":"London","location":{"type":"Point","coordinates":[-0.1262362,51.5001524]}},{"index":80,"name":"Notanant","founded_year":2003.0,"category_code":"ecommerce","raised":0.0,"city":"Bristol","location":{"type":"Point","coordinates":[-2.59989,51.455483]}},{"index":81,"name":"Undertone","founded_year":2002.0,"category_code":"advertising","raised":40.0,"city":"London","location":{"type":"Point","coordinates":[-0.132904,51.5118239]}},{"index":82,"name":"Babuki","founded_year":2006.0,"category_code":"network_hosting","raised":0.0,"city":"","location":{"type":"Point","coordinates":[-3.435973,55.378051]}},{"index":83,"name":"DotHomes","founded_year":2006.0,"category_code":"search","raised":0.0,"city":"London","location":{"type":"Point","coordinates":[-0.126236,51.500152]}},{"index":84,"name":"Absolute Software","founded_year":1993.0,"category_code":"software","raised":0.0,"city":"Newbury","location":{"type":"Point","coordinates":[-1.325337,51.399101]}},{"index":85,"name":"Engago Technologies","founded_year":2007.0,"category_code":"enterprise","raised":0.0,"city":"Haslemere","location":{"type":"Point","coordinates":[-0.709315,51.0874]}},{"index":86,"name":"Huddle","founded_year":2006.0,"category_code":"enterprise","raised":38.2,"city":"London","location":{"type":"Point","coordinates":[-0.0814873,51.4999065]}},{"index":87,"name":"Trampoline Systems","founded_year":2003.0,"category_code":"enterprise","raised":7.48,"city":"London","location":{"type":"Point","coordinates":[-0.0869736,51.5212179]}},{"index":88,"name":"Open Source Living","founded_year":2007.0,"category_code":"software","raised":0.0,"city":"London","location":{"type":"Point","coordinates":[-0.126236,51.500152]}},{"index":89,"name":"Chinwag","founded_year":1996.0,"category_code":"advertising","raised":0.0,"city":"London","location":{"type":"Point","coordinates":[-0.018647,51.50485]}},{"index":90,"name":"Moviestorm","founded_year":2005.0,"category_code":"software","raised":5.375,"city":"Cambridge","location":{"type":"Point","coordinates":[0.130588,52.197471]}},{"index":91,"name":"Nsyght","founded_year":2007.0,"category_code":"web","raised":0.0,"city":"Isleworth","location":{"type":"Point","coordinates":[-0.3387433,51.4751999]}},{"index":92,"name":"Zogix","founded_year":2006.0,"category_code":"software","raised":0.0,"city":"","location":{"type":"Point","coordinates":[-0.56253,51.762918]}},{"index":93,"name":"mySupermarket","founded_year":2006.0,"category_code":"web","raised":32.8,"city":"London","location":{"type":"Point","coordinates":[-0.159205,51.513671]}},{"index":94,"name":"TrustedPlaces","founded_year":2006.0,"category_code":"advertising","raised":1.0,"city":"London","location":{"type":"Point","coordinates":[-0.113583,51.524483]}},{"index":95,"name":"BrightSale","founded_year":2007.0,"category_code":"public_relations","raised":0.0,"city":"Surbiton","location":{"type":"Point","coordinates":[-0.3272835,51.3552388]}},{"index":96,"name":"Nestoria","founded_year":2006.0,"category_code":"search","raised":0.0,"city":"London","location":{"type":"Point","coordinates":[-0.0949082,51.5290669]}},{"index":97,"name":"Logicalware","founded_year":2002.0,"category_code":"software","raised":0.375,"city":"Edinburgh","location":{"type":"Point","coordinates":[-3.215149,55.94862]}},{"index":98,"name":"trymehere","founded_year":2006.0,"category_code":"web","raised":0.0,"city":"Farnborough, Hants","location":{"type":"Point","coordinates":[-0.744466,51.287062]}},{"index":99,"name":"OnOneMap","founded_year":2005.0,"category_code":"public_relations","raised":0.0,"city":"London","location":{"type":"Point","coordinates":[-0.147733,51.512792]}},{"index":100,"name":"ProcServe","founded_year":2006.0,"category_code":"ecommerce","raised":0.0,"city":"London","location":{"type":"Point","coordinates":[-0.146665,51.494067]}},{"index":101,"name":"SOSIUS","founded_year":2007.0,"category_code":"enterprise","raised":0.0,"city":"London","location":{"type":"Point","coordinates":[-0.209019,51.5260475]}},{"index":102,"name":"BlackNorth Software","founded_year":null,"category_code":"software","raised":0.0,"city":"","location":{"type":"Point","coordinates":[-3.435973,55.378051]}},{"index":103,"name":"TutorByTxt","founded_year":2008.0,"category_code":"mobile","raised":0.0,"city":"London","location":{"type":"Point","coordinates":[-0.217662,51.48916]}},{"index":104,"name":"Globant","founded_year":2003.0,"category_code":"software","raised":28.0,"city":"London","location":{"type":"Point","coordinates":[-0.0952197,51.5205095]}},{"index":105,"name":"ExitReality","founded_year":2002.0,"category_code":"web","raised":0.0,"city":"London","location":{"type":"Point","coordinates":[-0.126236,51.500152]}},{"index":106,"name":"LOVEFiLM","founded_year":2003.0,"category_code":"web","raised":0.0,"city":"London","location":{"type":"Point","coordinates":[-0.1585816,51.5241294]}},{"index":107,"name":"WeeWorld","founded_year":1998.0,"category_code":"web","raised":15.5,"city":"Glasgow","location":{"type":"Point","coordinates":[-4.2635168,55.8631705]}},{"index":108,"name":"Crowdstatus","founded_year":2008.0,"category_code":"public_relations","raised":0.0,"city":"","location":{"type":"Point","coordinates":[-3.435973,55.378051]}},{"index":109,"name":"Business IT Online","founded_year":null,"category_code":"enterprise","raised":0.0,"city":"London","location":{"type":"Point","coordinates":[-0.22233,51.501898]}},{"index":110,"name":"Gameware Development","founded_year":2003.0,"category_code":"software","raised":0.0,"city":"Cambridge","location":{"type":"Point","coordinates":[0.130733,52.205194]}},{"index":111,"name":"Agmachine","founded_year":1999.0,"category_code":"web","raised":0.0,"city":"Steyning","location":{"type":"Point","coordinates":[-0.317908,50.886906]}},{"index":112,"name":"twit+","founded_year":2008.0,"category_code":"games_video","raised":0.0,"city":"Corby","location":{"type":"Point","coordinates":[-0.698361,52.472029]}},{"index":113,"name":"Lingoloopy","founded_year":2007.0,"category_code":"web","raised":0.0,"city":"London","location":{"type":"Point","coordinates":[-0.126236,51.500152]}},{"index":114,"name":"Virgin Media","founded_year":null,"category_code":"other","raised":0.0,"city":"Swansea","location":{"type":"Point","coordinates":[-3.888038,51.670182]}},{"index":115,"name":"Mind Candy","founded_year":2003.0,"category_code":"web","raised":10.0,"city":"London","location":{"type":"Point","coordinates":[-0.147646,51.471958]}},{"index":116,"name":"Pixsta","founded_year":2010.0,"category_code":"web","raised":3.75,"city":"London","location":{"type":"Point","coordinates":[-0.208979,51.51819]}},{"index":117,"name":"MakeUseOf","founded_year":2006.0,"category_code":"software","raised":0.0,"city":"Glasgow","location":{"type":"Point","coordinates":[-4.271165,55.862878]}},{"index":118,"name":"Daily Mail and General Trust","founded_year":null,"category_code":"other","raised":0.0,"city":"London","location":{"type":"Point","coordinates":[-0.197902,51.632407]}},{"index":119,"name":"British Interactive Media Association","founded_year":null,"category_code":"other","raised":0.0,"city":"London","location":{"type":"Point","coordinates":[-0.088094,51.657702]}},{"index":120,"name":"amazingtunes","founded_year":2006.0,"category_code":"games_video","raised":1.75,"city":"Newcastle Upon Tyne","location":{"type":"Point","coordinates":[-1.611141,54.971346]}},{"index":121,"name":"RouteNote","founded_year":2008.0,"category_code":"games_video","raised":0.0,"city":"Redruth","location":{"type":"Point","coordinates":[-5.236903,50.231464]}},{"index":122,"name":"Ecademy","founded_year":1998.0,"category_code":"network_hosting","raised":0.0,"city":"Grayshott","location":{"type":"Point","coordinates":[-0.785977,51.116749]}},{"index":123,"name":"Yell","founded_year":1966.0,"category_code":"web","raised":0.0,"city":"Reading","location":{"type":"Point","coordinates":[-0.963937,51.453427]}},{"index":124,"name":"Textensor","founded_year":2005.0,"category_code":"web","raised":0.0,"city":"Edinburgh","location":{"type":"Point","coordinates":[-3.182321,55.96229]}},{"index":125,"name":"Esendex","founded_year":2001.0,"category_code":"mobile","raised":0.0,"city":"Nottingham","location":{"type":"Point","coordinates":[-1.142778,52.951997]}},{"index":126,"name":"IDlasso","founded_year":null,"category_code":"web","raised":0.0,"city":"","location":{"type":"Point","coordinates":[-3.435973,55.378051]}},{"index":127,"name":"Smarkets","founded_year":2008.0,"category_code":"sports","raised":2.71,"city":"London","location":{"type":"Point","coordinates":[-0.130772,51.550757]}},{"index":128,"name":"Hypertag","founded_year":2001.0,"category_code":"mobile","raised":0.0,"city":"Cambridge","location":{"type":"Point","coordinates":[0.131237,52.202544]}},{"index":129,"name":"YouPage Ltd","founded_year":2008.0,"category_code":"search","raised":0.0,"city":"London","location":{"type":"Point","coordinates":[-0.107143,51.498319]}},{"index":130,"name":"JustMeans","founded_year":2007.0,"category_code":"network_hosting","raised":0.0,"city":"London","location":{"type":"Point","coordinates":[-0.091784,51.503188]}},{"index":131,"name":"The Travel Editor","founded_year":2007.0,"category_code":"mobile","raised":0.0,"city":"London","location":{"type":"Point","coordinates":[-0.560842,51.754121]}},{"index":132,"name":"Vodafone","founded_year":1983.0,"category_code":"mobile","raised":0.0,"city":"Berkshire","location":{"type":"Point","coordinates":[-1.313068,51.417565]}},{"index":133,"name":"BlabNote","founded_year":null,"category_code":"network_hosting","raised":0.0,"city":"Liverpool","location":{"type":"Point","coordinates":[-2.977838,53.410777]}},{"index":134,"name":"Yabb","founded_year":1997.0,"category_code":"web","raised":0.0,"city":"London","location":{"type":"Point","coordinates":[-0.13376,51.514897]}},{"index":135,"name":"Worship Journal","founded_year":2008.0,"category_code":"web","raised":0.0,"city":"London","location":{"type":"Point","coordinates":[-0.150417,51.517076]}},{"index":136,"name":"Antal International","founded_year":1993.0,"category_code":"consulting","raised":0.0,"city":"London","location":{"type":"Point","coordinates":[-0.156212,51.519158]}},{"index":137,"name":"adflyer","founded_year":2007.0,"category_code":"ecommerce","raised":0.0,"city":"Birmingham","location":{"type":"Point","coordinates":[-1.934785,52.458458]}},{"index":138,"name":"Webconverger","founded_year":2007.0,"category_code":"software","raised":0.0,"city":"","location":{"type":"Point","coordinates":[-3.435973,55.378051]}},{"index":139,"name":"MediaRush","founded_year":2000.0,"category_code":"web","raised":0.0,"city":"","location":{"type":"Point","coordinates":[-3.435973,55.378051]}},{"index":140,"name":"Coriolis Media","founded_year":null,"category_code":"other","raised":0.0,"city":"Scotland","location":{"type":"Point","coordinates":[-4.687544,57.746607]}},{"index":141,"name":"Swirrl","founded_year":2008.0,"category_code":"advertising","raised":0.0,"city":"","location":{"type":"Point","coordinates":[-3.435973,55.378051]}},{"index":142,"name":"Locify","founded_year":2007.0,"category_code":"mobile","raised":0.0,"city":"Manchester","location":{"type":"Point","coordinates":[-2.259258,53.48336]}},{"index":143,"name":"wheresbest","founded_year":2008.0,"category_code":"search","raised":0.0,"city":"","location":{"type":"Point","coordinates":[-3.435973,55.378051]}},{"index":144,"name":"Phreadz","founded_year":2008.0,"category_code":"web","raised":0.0,"city":"London","location":{"type":"Point","coordinates":[-0.126236,51.500152]}},{"index":145,"name":"Socruise","founded_year":2008.0,"category_code":"web","raised":0.273,"city":"Kent","location":{"type":"Point","coordinates":[0.257568,51.125693]}},{"index":146,"name":"Apertio","founded_year":null,"category_code":"mobile","raised":30.0,"city":"Bristol","location":{"type":"Point","coordinates":[-2.533334,51.499708]}},{"index":147,"name":"ClearMyMail","founded_year":2006.0,"category_code":"public_relations","raised":0.15,"city":"Corby","location":{"type":"Point","coordinates":[-0.683458,52.4910435]}},{"index":148,"name":"Inca X Mobile","founded_year":null,"category_code":"mobile","raised":0.0,"city":"Buckinghamshire","location":{"type":"Point","coordinates":[-0.609505,51.507671]}},{"index":149,"name":"Cloudcity","founded_year":2007.0,"category_code":"web","raised":3.75,"city":"St Albans","location":{"type":"Point","coordinates":[-0.280535,51.750141]}},{"index":150,"name":"ClassMarker","founded_year":2006.0,"category_code":"web","raised":0.0,"city":"","location":{"type":"Point","coordinates":[-3.435973,55.378051]}},{"index":151,"name":"MESOMOCO","founded_year":2008.0,"category_code":"web","raised":0.0,"city":"Scarborough","location":{"type":"Point","coordinates":[-0.469586,54.211373]}},{"index":152,"name":"Sazell","founded_year":2008.0,"category_code":"web","raised":0.0,"city":"London","location":{"type":"Point","coordinates":[-0.126236,51.500152]}},{"index":153,"name":"PageUp People","founded_year":1997.0,"category_code":"software","raised":0.0,"city":"London","location":{"type":"Point","coordinates":[-0.123614,51.515124]}},{"index":154,"name":"DateMyMate","founded_year":null,"category_code":"web","raised":0.0,"city":"SOUTH  WALES","location":{"type":"Point","coordinates":[-3.4274243,51.7016527]}},{"index":155,"name":"WSO2","founded_year":2005.0,"category_code":"software","raised":20.5,"city":"","location":{"type":"Point","coordinates":[-0.919424,50.8472228]}},{"index":156,"name":"ArtFlock","founded_year":2007.0,"category_code":"web","raised":0.0,"city":"Leamington Spa","location":{"type":"Point","coordinates":[-1.5357872,52.2919851]}},{"index":157,"name":"Rally Software","founded_year":2001.0,"category_code":"enterprise","raised":68.9,"city":"Buckinghamshire","location":{"type":"Point","coordinates":[-0.614003,51.6666189]}},{"index":158,"name":"OurPlanet","founded_year":null,"category_code":null,"raised":0.0,"city":"","location":{"type":"Point","coordinates":[-3.435973,55.378051]}},{"index":159,"name":"Merlin Network","founded_year":null,"category_code":"other","raised":0.0,"city":"London","location":{"type":"Point","coordinates":[-0.137252,51.518001]}},{"index":160,"name":"Corizon","founded_year":null,"category_code":"software","raised":0.0,"city":"London","location":{"type":"Point","coordinates":[-0.0774998,51.5175476]}},{"index":161,"name":"939 Design","founded_year":2006.0,"category_code":"web","raised":0.0,"city":"East Yorkshire","location":{"type":"Point","coordinates":[-0.439392,53.725204]}},{"index":162,"name":"Dreamsoft Technologies","founded_year":2007.0,"category_code":"software","raised":0.1,"city":"","location":{"type":"Point","coordinates":[-2.15871,53.616352]}},{"index":163,"name":"SocialBang","founded_year":2005.0,"category_code":"network_hosting","raised":0.0,"city":"Richmond-upon-Thames","location":{"type":"Point","coordinates":[-0.2999236,51.4637732]}},{"index":164,"name":"FrontlineSMS","founded_year":null,"category_code":"mobile","raised":0.0,"city":"Willingham","location":{"type":"Point","coordinates":[0.057935,52.314342]}},{"index":165,"name":"Zulu Creative","founded_year":2002.0,"category_code":"advertising","raised":0.0,"city":"West Midlands","location":{"type":"Point","coordinates":[-1.830892,52.588545]}},{"index":166,"name":"Unicast","founded_year":1998.0,"category_code":"advertising","raised":0.0,"city":"London","location":{"type":"Point","coordinates":[-0.136174,51.519819]}},{"index":167,"name":"Exinda","founded_year":2002.0,"category_code":"software","raised":19.0,"city":"Watford","location":{"type":"Point","coordinates":[-0.397004,51.661293]}},{"index":168,"name":"Monetise","founded_year":null,"category_code":"ecommerce","raised":0.0,"city":"London","location":{"type":"Point","coordinates":[-0.138397,51.516581]}},{"index":169,"name":"Wigadoo","founded_year":2007.0,"category_code":"web","raised":0.0,"city":"London","location":{"type":"Point","coordinates":[-0.0944873,51.5016514]}},{"index":170,"name":"Channel Intelligence","founded_year":1999.0,"category_code":"web","raised":3.01,"city":"London","location":{"type":"Point","coordinates":[-0.126236,51.500152]}},{"index":171,"name":"Vigster","founded_year":null,"category_code":"games_video","raised":0.062,"city":"London","location":{"type":"Point","coordinates":[-0.126236,51.500152]}},{"index":172,"name":"LinQpay","founded_year":2007.0,"category_code":"mobile","raised":0.0,"city":"London","location":{"type":"Point","coordinates":[-0.146431,51.514193]}},{"index":173,"name":"LeadsExplorer","founded_year":null,"category_code":"web","raised":0.0,"city":"Haslemere,  Surrey","location":{"type":"Point","coordinates":[-0.7093147,51.0873999]}},{"index":174,"name":"Pixy Ltd","founded_year":2006.0,"category_code":"web","raised":0.062,"city":"Maidenhead","location":{"type":"Point","coordinates":[-0.742987,51.508466]}},{"index":175,"name":"MyMart","founded_year":2006.0,"category_code":"mobile","raised":0.0,"city":"London","location":{"type":"Point","coordinates":[-0.157333,51.541937]}},{"index":176,"name":"EventElephant","founded_year":2008.0,"category_code":"software","raised":0.0,"city":"Richmond","location":{"type":"Point","coordinates":[-6.252923,53.335194]}},{"index":177,"name":"111pix","founded_year":2006.0,"category_code":null,"raised":0.0,"city":"London","location":{"type":"Point","coordinates":[-0.1339263,51.5133527]}},{"index":178,"name":"AdParlor","founded_year":2008.0,"category_code":"advertising","raised":0.0,"city":"Covent Garden, London","location":{"type":"Point","coordinates":[-0.1260146,51.5119883]}},{"index":179,"name":"PitchSpace","founded_year":2008.0,"category_code":"public_relations","raised":0.0,"city":"London","location":{"type":"Point","coordinates":[-0.147348,51.493317]}},{"index":180,"name":"IPC Media","founded_year":null,"category_code":"other","raised":0.0,"city":"London","location":{"type":"Point","coordinates":[-0.099901,51.505671]}},{"index":181,"name":"Appian","founded_year":1999.0,"category_code":"software","raised":10.0,"city":"London","location":{"type":"Point","coordinates":[-0.094384,51.513122]}},{"index":182,"name":"Troux Technologies","founded_year":2001.0,"category_code":"enterprise","raised":33.9,"city":"Slough","location":{"type":"Point","coordinates":[-0.631817,51.519369]}},{"index":183,"name":"LivePerson","founded_year":1995.0,"category_code":"software","raised":2.3,"city":"Reading","location":{"type":"Point","coordinates":[-0.9876997,51.4238637]}},{"index":184,"name":"CleVR","founded_year":null,"category_code":"web","raised":0.0,"city":"Clevedon","location":{"type":"Point","coordinates":[-2.8457173,51.4478258]}},{"index":185,"name":"Expensure","founded_year":2007.0,"category_code":"mobile","raised":0.0,"city":"London","location":{"type":"Point","coordinates":[-0.126236,51.500152]}},{"index":186,"name":"Smashbuys","founded_year":2008.0,"category_code":"hardware","raised":0.0,"city":"London","location":{"type":"Point","coordinates":[-0.126236,51.500152]}},{"index":187,"name":"Vonage","founded_year":2001.0,"category_code":"mobile","raised":0.0,"city":"London","location":{"type":"Point","coordinates":[-0.1471,51.512915]}},{"index":188,"name":"Buy Our Honeymoon","founded_year":2007.0,"category_code":"web","raised":0.0,"city":"Kent","location":{"type":"Point","coordinates":[0.001682,51.484638]}},{"index":189,"name":"TweetDeck","founded_year":2008.0,"category_code":"software","raised":3.8,"city":"London","location":{"type":"Point","coordinates":[-0.1262362,51.5001524]}},{"index":190,"name":"Digital Nation","founded_year":null,"category_code":"web","raised":0.0,"city":"Swansea","location":{"type":"Point","coordinates":[-3.997764,51.572648]}},{"index":191,"name":"GlocalReach","founded_year":2007.0,"category_code":"mobile","raised":0.2,"city":"London","location":{"type":"Point","coordinates":[-0.1219851,51.5208247]}},{"index":192,"name":"IDEO","founded_year":1978.0,"category_code":"consulting","raised":0.0,"city":"London","location":{"type":"Point","coordinates":[-0.109804,51.522272]}},{"index":193,"name":"Wahanda","founded_year":2008.0,"category_code":"web","raised":8.75,"city":"London","location":{"type":"Point","coordinates":[1.996567,41.792265]}},{"index":194,"name":"Videoplaza","founded_year":2007.0,"category_code":"advertising","raised":17.331,"city":"London","location":{"type":"Point","coordinates":[-0.1020894,51.5212481]}},{"index":195,"name":"Snagsta","founded_year":2007.0,"category_code":"search","raised":0.13,"city":"London","location":{"type":"Point","coordinates":[-0.1400366,51.4761694]}},{"index":196,"name":"Kappa Prime","founded_year":2008.0,"category_code":"web","raised":0.0,"city":"London","location":{"type":"Point","coordinates":[-0.175393,51.498067]}},{"index":197,"name":"Zoomix","founded_year":2000.0,"category_code":"software","raised":0.0,"city":"London","location":{"type":"Point","coordinates":[-0.263377,51.462904]}},{"index":198,"name":"muzu tv","founded_year":2006.0,"category_code":"web","raised":8.0,"city":"London","location":{"type":"Point","coordinates":[-0.13063,51.513678]}},{"index":199,"name":"SoGlos","founded_year":2007.0,"category_code":"web","raised":0.0,"city":"Cheltenham Gloucestershire","location":{"type":"Point","coordinates":[-2.078262,51.9016572]}},{"index":200,"name":"Dexterra","founded_year":2000.0,"category_code":"mobile","raised":123.0,"city":"Reading, Berkshire","location":{"type":"Point","coordinates":[-0.995684,51.420766]}},{"index":201,"name":"LookupPage","founded_year":2006.0,"category_code":"search","raised":0.0,"city":"London","location":{"type":"Point","coordinates":[-0.081486,51.500446]}},{"index":202,"name":"Dynamic50","founded_year":2008.0,"category_code":"consulting","raised":0.0,"city":"London","location":{"type":"Point","coordinates":[-0.184358,51.51781]}},{"index":203,"name":"INFINICOR","founded_year":null,"category_code":"other","raised":0.0,"city":"London","location":{"type":"Point","coordinates":[-0.0934183,51.4964279]}},{"index":204,"name":"Advorto","founded_year":1998.0,"category_code":"software","raised":0.0,"city":"London","location":{"type":"Point","coordinates":[-0.083743,51.500395]}},{"index":205,"name":"Sportstation","founded_year":2007.0,"category_code":"games_video","raised":0.0,"city":"Amersham","location":{"type":"Point","coordinates":[-0.572355,51.678254]}},{"index":206,"name":"Instil Software","founded_year":2005.0,"category_code":"software","raised":0.0,"city":"Belfast","location":{"type":"Point","coordinates":[-5.87908,54.597233]}},{"index":207,"name":"WorkoutBOX","founded_year":2008.0,"category_code":"web","raised":0.0,"city":"Dorking, Surrey","location":{"type":"Point","coordinates":[-0.4274181,51.2798857]}},{"index":208,"name":"I-COM","founded_year":2004.0,"category_code":"advertising","raised":0.0,"city":"Manchester","location":{"type":"Point","coordinates":[-2.354238,53.385028]}},{"index":209,"name":"Cklear","founded_year":1990.0,"category_code":"software","raised":0.0,"city":"","location":{"type":"Point","coordinates":[0.1726251,52.8525751]}},{"index":210,"name":"We're Rolling","founded_year":2007.0,"category_code":"other","raised":0.0,"city":"London","location":{"type":"Point","coordinates":[-0.0197,51.496217]}},{"index":211,"name":"Xara","founded_year":1981.0,"category_code":"software","raised":0.0,"city":"Hemel Hempstead","location":{"type":"Point","coordinates":[-0.427683,51.778404]}},{"index":212,"name":"Black Duck Software","founded_year":2002.0,"category_code":"software","raised":50.5,"city":"Manchester","location":{"type":"Point","coordinates":[-2.258714,53.524419]}},{"index":213,"name":"CarbonFlow","founded_year":2006.0,"category_code":"software","raised":8.47,"city":"London","location":{"type":"Point","coordinates":[-0.126236,51.500152]}},{"index":214,"name":"ClickTorch","founded_year":2007.0,"category_code":"ecommerce","raised":0.0,"city":"Elford","location":{"type":"Point","coordinates":[-1.712905,52.659481]}},{"index":215,"name":"Big Property Ladder","founded_year":1995.0,"category_code":"other","raised":0.0,"city":"London.","location":{"type":"Point","coordinates":[-0.1392765,51.5115309]}},{"index":216,"name":"Sweemo","founded_year":2008.0,"category_code":"web","raised":0.0,"city":"London","location":{"type":"Point","coordinates":[-0.1227806,51.5277086]}},{"index":217,"name":"Livebookings","founded_year":2005.0,"category_code":"advertising","raised":63.0,"city":"London","location":{"type":"Point","coordinates":[-0.1198244,51.5112139]}},{"index":218,"name":"Event Innovation","founded_year":2007.0,"category_code":"enterprise","raised":0.0,"city":"London","location":{"type":"Point","coordinates":[-0.133591,51.516203]}},{"index":219,"name":"Industria","founded_year":2003.0,"category_code":"software","raised":0.0,"city":"London","location":{"type":"Point","coordinates":[-0.126236,51.500152]}},{"index":220,"name":"Mixcloud","founded_year":2008.0,"category_code":"games_video","raised":0.0,"city":"London","location":{"type":"Point","coordinates":[-0.2859795,51.5399105]}},{"index":221,"name":"The Tin","founded_year":2001.0,"category_code":"web","raised":0.0,"city":"London","location":{"type":"Point","coordinates":[-0.10978,51.52129]}},{"index":222,"name":"Telnic","founded_year":2000.0,"category_code":"search","raised":35.0,"city":"London","location":{"type":"Point","coordinates":[-0.134078,51.518107]}},{"index":223,"name":"Near Global","founded_year":2007.0,"category_code":"software","raised":0.0,"city":"London","location":{"type":"Point","coordinates":[-0.196592,51.549348]}},{"index":224,"name":"CODA","founded_year":null,"category_code":"software","raised":0.0,"city":"North Yorkshire","location":{"type":"Point","coordinates":[-1.567982,53.976358]}},{"index":225,"name":"Illumina Digital","founded_year":1998.0,"category_code":"games_video","raised":0.0,"city":"London","location":{"type":"Point","coordinates":[-0.25628,51.503612]}},{"index":226,"name":"CompareAway","founded_year":2009.0,"category_code":"web","raised":0.625,"city":"Durham","location":{"type":"Point","coordinates":[-1.574948,54.703145]}},{"index":227,"name":"Squiz UK","founded_year":2003.0,"category_code":"web","raised":0.0,"city":"London","location":{"type":"Point","coordinates":[-0.083444,51.521603]}},{"index":228,"name":"ITBrix","founded_year":2005.0,"category_code":"software","raised":0.0,"city":"St. Albans Herts","location":{"type":"Point","coordinates":[-0.341379,51.748219]}},{"index":229,"name":"e-Man","founded_year":2000.0,"category_code":"web","raised":0.0,"city":"London,","location":{"type":"Point","coordinates":[-0.141022,51.517712]}},{"index":230,"name":"aNobii","founded_year":2006.0,"category_code":"web","raised":0.0,"city":"London","location":{"type":"Point","coordinates":[114.200412,22.284596]}},{"index":231,"name":"ListerTalent","founded_year":2006.0,"category_code":"mobile","raised":0.0,"city":"Newbury","location":{"type":"Point","coordinates":[-1.329241,51.405977]}},{"index":232,"name":"Paymo","founded_year":null,"category_code":"mobile","raised":5.0,"city":"London","location":{"type":"Point","coordinates":[-0.109017,51.514165]}},{"index":233,"name":"retaggr","founded_year":2008.0,"category_code":"web","raised":0.0,"city":"London","location":{"type":"Point","coordinates":[-0.24233,51.549167]}},{"index":234,"name":"Treasuremytext","founded_year":2008.0,"category_code":"mobile","raised":0.0,"city":"Prenton","location":{"type":"Point","coordinates":[-3.036415,53.386432]}},{"index":235,"name":"TheWebService","founded_year":2008.0,"category_code":"web","raised":0.0,"city":"Worcester","location":{"type":"Point","coordinates":[-2.26681,52.232349]}},{"index":236,"name":"SMBLive","founded_year":2005.0,"category_code":"enterprise","raised":0.0,"city":"London","location":{"type":"Point","coordinates":[-0.124569,51.51299]}},{"index":237,"name":"Groopi","founded_year":2008.0,"category_code":"games_video","raised":0.0,"city":"Newbury","location":{"type":"Point","coordinates":[-1.313068,51.417565]}},{"index":238,"name":"MyElephantBites","founded_year":null,"category_code":"games_video","raised":0.0,"city":"Oxford","location":{"type":"Point","coordinates":[-1.261946,51.7691138]}},{"index":239,"name":"Rockoko","founded_year":2007.0,"category_code":"other","raised":0.0,"city":"","location":{"type":"Point","coordinates":[-1.533601,52.291474]}},{"index":240,"name":"twit+","founded_year":2008.0,"category_code":"games_video","raised":0.0,"city":"Corby","location":{"type":"Point","coordinates":[-0.698361,52.472029]}},{"index":241,"name":"Voxeo","founded_year":1999.0,"category_code":"network_hosting","raised":9.0,"city":"Hertfordshire","location":{"type":"Point","coordinates":[-0.1871194,51.8027645]}},{"index":242,"name":"AKM","founded_year":1989.0,"category_code":"software","raised":0.0,"city":"Stafford","location":{"type":"Point","coordinates":[-2.124184,52.81815]}},{"index":243,"name":"UK Office Direct","founded_year":2002.0,"category_code":"other","raised":0.0,"city":"Swindon","location":{"type":"Point","coordinates":[-1.711398,51.641703]}},{"index":244,"name":"Micro Focus","founded_year":1976.0,"category_code":"enterprise","raised":0.0,"city":"","location":{"type":"Point","coordinates":[-1.3311934,51.406245]}},{"index":245,"name":"Postcode Anywhere","founded_year":null,"category_code":null,"raised":0.0,"city":"Worcester","location":{"type":"Point","coordinates":[-2.2216089,52.1829787]}},{"index":246,"name":"MetaPack","founded_year":1999.0,"category_code":"software","raised":20.5,"city":"London","location":{"type":"Point","coordinates":[-0.111242,51.52216]}},{"index":247,"name":"OCLC","founded_year":1967.0,"category_code":"other","raised":0.0,"city":"Sheffield","location":{"type":"Point","coordinates":[-1.5031169,53.3630547]}},{"index":248,"name":"Aventure Host","founded_year":2003.0,"category_code":"network_hosting","raised":0.0,"city":"Belfast","location":{"type":"Point","coordinates":[-5.919693,54.649575]}},{"index":249,"name":"2Big2Send","founded_year":2007.0,"category_code":"web","raised":0.0,"city":"Oxford","location":{"type":"Point","coordinates":[-1.221595,51.734276]}},{"index":250,"name":"Aventure Media","founded_year":2003.0,"category_code":"web","raised":0.0,"city":"Belfast","location":{"type":"Point","coordinates":[-5.919693,54.649575]}},{"index":251,"name":"artandseek","founded_year":2007.0,"category_code":"other","raised":0.05,"city":"London","location":{"type":"Point","coordinates":[-0.126236,51.500152]}},{"index":252,"name":"Intela","founded_year":2006.0,"category_code":"advertising","raised":13.3,"city":"London","location":{"type":"Point","coordinates":[-0.1230127,51.5139758]}},{"index":253,"name":"Mexuar Communications","founded_year":2005.0,"category_code":"software","raised":0.0,"city":"Manchester","location":{"type":"Point","coordinates":[-2.335605,53.465082]}},{"index":254,"name":"AKQA","founded_year":1995.0,"category_code":"advertising","raised":0.0,"city":"London","location":{"type":"Point","coordinates":[-0.102318,51.521351]}},{"index":255,"name":"Adprecision","founded_year":2006.0,"category_code":"advertising","raised":0.0,"city":"Manchester","location":{"type":"Point","coordinates":[-2.249752,53.47363]}},{"index":256,"name":"Mimosa Systems","founded_year":2003.0,"category_code":"software","raised":53.8,"city":"Reading","location":{"type":"Point","coordinates":[-0.93391,51.461674]}},{"index":257,"name":"Pressmart","founded_year":null,"category_code":"web","raised":6.0,"city":"Wiltshire","location":{"type":"Point","coordinates":[-1.5953939,51.4987295]}},{"index":258,"name":"QFx Solutions Ltd","founded_year":2003.0,"category_code":"consulting","raised":0.0,"city":"Leicester","location":{"type":"Point","coordinates":[-1.103537,52.6168]}},{"index":259,"name":"Webtogs","founded_year":2008.0,"category_code":"ecommerce","raised":0.0,"city":"Wincanton","location":{"type":"Point","coordinates":[0.544338,51.386522]}},{"index":260,"name":"Treasuremytext","founded_year":2008.0,"category_code":"mobile","raised":0.0,"city":"Prenton","location":{"type":"Point","coordinates":[-3.036415,53.386432]}},{"index":261,"name":"TheWebService","founded_year":2008.0,"category_code":"web","raised":0.0,"city":"Worcester","location":{"type":"Point","coordinates":[-2.26681,52.232349]}},{"index":262,"name":"SMBLive","founded_year":2005.0,"category_code":"enterprise","raised":0.0,"city":"London","location":{"type":"Point","coordinates":[-0.124569,51.51299]}},{"index":263,"name":"Groopi","founded_year":2008.0,"category_code":"games_video","raised":0.0,"city":"Newbury","location":{"type":"Point","coordinates":[-1.313068,51.417565]}},{"index":264,"name":"MyElephantBites","founded_year":null,"category_code":"games_video","raised":0.0,"city":"Oxford","location":{"type":"Point","coordinates":[-1.261946,51.7691138]}},{"index":265,"name":"Rockoko","founded_year":2007.0,"category_code":"other","raised":0.0,"city":"","location":{"type":"Point","coordinates":[-1.533601,52.291474]}},{"index":266,"name":"twit+","founded_year":2008.0,"category_code":"games_video","raised":0.0,"city":"Corby","location":{"type":"Point","coordinates":[-0.698361,52.472029]}},{"index":267,"name":"Voxeo","founded_year":1999.0,"category_code":"network_hosting","raised":9.0,"city":"Hertfordshire","location":{"type":"Point","coordinates":[-0.1871194,51.8027645]}},{"index":268,"name":"AKM","founded_year":1989.0,"category_code":"software","raised":0.0,"city":"Stafford","location":{"type":"Point","coordinates":[-2.124184,52.81815]}},{"index":269,"name":"UK Office Direct","founded_year":2002.0,"category_code":"other","raised":0.0,"city":"Swindon","location":{"type":"Point","coordinates":[-1.711398,51.641703]}},{"index":270,"name":"Micro Focus","founded_year":1976.0,"category_code":"enterprise","raised":0.0,"city":"","location":{"type":"Point","coordinates":[-1.3311934,51.406245]}},{"index":271,"name":"Postcode Anywhere","founded_year":null,"category_code":null,"raised":0.0,"city":"Worcester","location":{"type":"Point","coordinates":[-2.2216089,52.1829787]}},{"index":272,"name":"MetaPack","founded_year":1999.0,"category_code":"software","raised":20.5,"city":"London","location":{"type":"Point","coordinates":[-0.111242,51.52216]}},{"index":273,"name":"OCLC","founded_year":1967.0,"category_code":"other","raised":0.0,"city":"Sheffield","location":{"type":"Point","coordinates":[-1.5031169,53.3630547]}},{"index":274,"name":"Aventure Host","founded_year":2003.0,"category_code":"network_hosting","raised":0.0,"city":"Belfast","location":{"type":"Point","coordinates":[-5.919693,54.649575]}},{"index":275,"name":"2Big2Send","founded_year":2007.0,"category_code":"web","raised":0.0,"city":"Oxford","location":{"type":"Point","coordinates":[-1.221595,51.734276]}},{"index":276,"name":"Aventure Media","founded_year":2003.0,"category_code":"web","raised":0.0,"city":"Belfast","location":{"type":"Point","coordinates":[-5.919693,54.649575]}},{"index":277,"name":"artandseek","founded_year":2007.0,"category_code":"other","raised":0.05,"city":"London","location":{"type":"Point","coordinates":[-0.126236,51.500152]}},{"index":278,"name":"Intela","founded_year":2006.0,"category_code":"advertising","raised":13.3,"city":"London","location":{"type":"Point","coordinates":[-0.1230127,51.5139758]}},{"index":279,"name":"Mexuar Communications","founded_year":2005.0,"category_code":"software","raised":0.0,"city":"Manchester","location":{"type":"Point","coordinates":[-2.335605,53.465082]}},{"index":280,"name":"AKQA","founded_year":1995.0,"category_code":"advertising","raised":0.0,"city":"London","location":{"type":"Point","coordinates":[-0.102318,51.521351]}},{"index":281,"name":"Adprecision","founded_year":2006.0,"category_code":"advertising","raised":0.0,"city":"Manchester","location":{"type":"Point","coordinates":[-2.249752,53.47363]}},{"index":282,"name":"Mimosa Systems","founded_year":2003.0,"category_code":"software","raised":53.8,"city":"Reading","location":{"type":"Point","coordinates":[-0.93391,51.461674]}},{"index":283,"name":"Pressmart","founded_year":null,"category_code":"web","raised":6.0,"city":"Wiltshire","location":{"type":"Point","coordinates":[-1.5953939,51.4987295]}},{"index":284,"name":"QFx Solutions Ltd","founded_year":2003.0,"category_code":"consulting","raised":0.0,"city":"Leicester","location":{"type":"Point","coordinates":[-1.103537,52.6168]}},{"index":285,"name":"Webtogs","founded_year":2008.0,"category_code":"ecommerce","raised":0.0,"city":"Wincanton","location":{"type":"Point","coordinates":[0.544338,51.386522]}},{"index":286,"name":"Small Business Advertising Network","founded_year":2007.0,"category_code":"advertising","raised":0.0,"city":"London","location":{"type":"Point","coordinates":[-0.103101,51.511349]}},{"index":287,"name":"Data Connection","founded_year":null,"category_code":null,"raised":0.0,"city":"Enfield","location":{"type":"Point","coordinates":[-0.0881738,51.6534166]}},{"index":288,"name":"Streamline Alliance","founded_year":1999.0,"category_code":"other","raised":1.0,"city":"London","location":{"type":"Point","coordinates":[-0.207932,51.483057]}},{"index":289,"name":"WWCTN","founded_year":2008.0,"category_code":"web","raised":0.0,"city":"Aberdeen","location":{"type":"Point","coordinates":[-2.1334772,57.1254952]}},{"index":290,"name":"PCIQ","founded_year":2006.0,"category_code":"web","raised":0.0,"city":"London","location":{"type":"Point","coordinates":[-0.130109,51.515374]}},{"index":291,"name":"Qpyn","founded_year":2003.0,"category_code":"mobile","raised":0.625,"city":"London","location":{"type":"Point","coordinates":[-0.197676,51.588083]}},{"index":292,"name":"mashup* Event","founded_year":2006.0,"category_code":"enterprise","raised":0.0,"city":"London","location":{"type":"Point","coordinates":[-0.0871537,51.5093129]}},{"index":293,"name":"Yankee Group","founded_year":1973.0,"category_code":"consulting","raised":0.0,"city":"London","location":{"type":"Point","coordinates":[-0.125134,51.521104]}},{"index":294,"name":"SearchSalad","founded_year":2007.0,"category_code":"search","raised":0.0,"city":"London","location":{"type":"Point","coordinates":[-0.145438,51.509905]}},{"index":295,"name":"OneSource Information Services","founded_year":1993.0,"category_code":"analytics","raised":0.0,"city":"London","location":{"type":"Point","coordinates":[-0.088245,51.518327]}},{"index":296,"name":"24SevenOffice","founded_year":1997.0,"category_code":"software","raised":0.0,"city":"London","location":{"type":"Point","coordinates":[-0.134634,51.514913]}},{"index":297,"name":"Kyko","founded_year":null,"category_code":"consulting","raised":0.0,"city":"Warwickshire","location":{"type":"Point","coordinates":[-1.496319,52.312964]}},{"index":298,"name":"litl","founded_year":2007.0,"category_code":"hardware","raised":0.0,"city":"London","location":{"type":"Point","coordinates":[-0.139244,51.511494]}},{"index":299,"name":"Whereonearth","founded_year":1995.0,"category_code":"software","raised":0.0,"city":"London","location":{"type":"Point","coordinates":[-0.128958,51.513422]}},{"index":300,"name":"FISCAL Technologies","founded_year":2002.0,"category_code":"software","raised":0.0,"city":"READING","location":{"type":"Point","coordinates":[-0.9717955,51.4323208]}},{"index":301,"name":"GridFusions","founded_year":2004.0,"category_code":"advertising","raised":0.0,"city":"Worthing","location":{"type":"Point","coordinates":[-0.3713868,50.8147114]}},{"index":302,"name":"WiredRed","founded_year":1998.0,"category_code":"software","raised":0.0,"city":"Chichester","location":{"type":"Point","coordinates":[-0.779497,50.833935]}},{"index":303,"name":"Acknowledgement","founded_year":2003.0,"category_code":null,"raised":0.0,"city":"London","location":{"type":"Point","coordinates":[-0.0740678,51.5183725]}},{"index":304,"name":"Box UK","founded_year":1998.0,"category_code":"software","raised":0.0,"city":"London","location":{"type":"Point","coordinates":[-0.1392447,51.5107737]}},{"index":305,"name":"Tailgate Technologies","founded_year":2007.0,"category_code":"advertising","raised":0.0,"city":"London","location":{"type":"Point","coordinates":[-0.127743,51.511889]}},{"index":306,"name":"AMF Ventures","founded_year":2001.0,"category_code":"consulting","raised":0.0,"city":"","location":{"type":"Point","coordinates":[-0.142322,51.507404]}},{"index":307,"name":"Siondo","founded_year":2007.0,"category_code":"enterprise","raised":0.0,"city":"London","location":{"type":"Point","coordinates":[-0.202734,51.480657]}},{"index":308,"name":"FriendBinder","founded_year":2007.0,"category_code":"network_hosting","raised":0.0,"city":"","location":{"type":"Point","coordinates":[-1.500544,52.303945]}},{"index":309,"name":"The Game Creators","founded_year":1999.0,"category_code":"games_video","raised":0.025,"city":"Macclesfiled, Cheshire","location":{"type":"Point","coordinates":[-2.092073,53.296176]}},{"index":310,"name":"MultiMap","founded_year":null,"category_code":"web","raised":0.0,"city":"London","location":{"type":"Point","coordinates":[-0.109017,51.514165]}},{"index":311,"name":"Blog to it","founded_year":2008.0,"category_code":"web","raised":0.0,"city":"Abergavenny","location":{"type":"Point","coordinates":[-3.020908,51.824849]}},{"index":312,"name":"Bytemobile","founded_year":2000.0,"category_code":"mobile","raised":0.0,"city":"Belfast","location":{"type":"Point","coordinates":[-5.9301088,54.5972686]}},{"index":313,"name":"Bytemobile","founded_year":2000.0,"category_code":"mobile","raised":0.0,"city":"Wokingham Berkshire","location":{"type":"Point","coordinates":[-0.8349256,51.4109723]}},{"index":314,"name":"Lionhead Studios","founded_year":1997.0,"category_code":"software","raised":0.0,"city":"Guildford Surrey","location":{"type":"Point","coordinates":[-0.612695,51.240788]}},{"index":315,"name":"Pumant","founded_year":2005.0,"category_code":"software","raised":1.2,"city":"Birmingham","location":{"type":"Point","coordinates":[-1.893621,52.482932]}},{"index":316,"name":"SocialGO","founded_year":2007.0,"category_code":"social","raised":3.0,"city":"London","location":{"type":"Point","coordinates":[-0.0925694,51.5027669]}},{"index":317,"name":"Zoopla","founded_year":2007.0,"category_code":"real_estate","raised":10.2,"city":"London","location":{"type":"Point","coordinates":[-0.1010801,51.5037471]}},{"index":318,"name":"Signature IT","founded_year":null,"category_code":"software","raised":0.0,"city":"London","location":{"type":"Point","coordinates":[-0.126236,51.500152]}},{"index":319,"name":"Recast Digital","founded_year":2008.0,"category_code":"advertising","raised":0.0,"city":"London","location":{"type":"Point","coordinates":[-0.132894,51.499671]}},{"index":320,"name":"Stubmatic","founded_year":2007.0,"category_code":"ecommerce","raised":0.0,"city":"Quedgeley","location":{"type":"Point","coordinates":[-2.2782624,51.834879]}},{"index":321,"name":"Sparkpr","founded_year":1999.0,"category_code":"public_relations","raised":0.0,"city":"London","location":{"type":"Point","coordinates":[-0.0762235,51.524127]}},{"index":322,"name":"Fruugo","founded_year":2006.0,"category_code":"ecommerce","raised":0.0,"city":"Ulverston","location":{"type":"Point","coordinates":[24.9410368,60.1703094]}},{"index":323,"name":"talkbiznow","founded_year":null,"category_code":"network_hosting","raised":0.0,"city":"London","location":{"type":"Point","coordinates":[-0.1346112,51.5149197]}},{"index":324,"name":"CTL Europe","founded_year":2001.0,"category_code":"other","raised":0.0,"city":"London","location":{"type":"Point","coordinates":[-0.279676,51.55967]}},{"index":325,"name":"Solid State Group","founded_year":2002.0,"category_code":"web","raised":0.0,"city":"London","location":{"type":"Point","coordinates":[-0.0830772,51.5246619]}},{"index":326,"name":"Glow New Media","founded_year":null,"category_code":"advertising","raised":0.0,"city":"Liverpool","location":{"type":"Point","coordinates":[-2.9778383,53.4107766]}},{"index":327,"name":"Quidco","founded_year":2005.0,"category_code":"web","raised":0.0,"city":"London","location":{"type":"Point","coordinates":[0.2139465,51.4418908]}},{"index":328,"name":"Jaincotech","founded_year":2004.0,"category_code":"other","raised":0.0,"city":"United Kingdom.","location":{"type":"Point","coordinates":[-0.1416596,51.5350682]}},{"index":329,"name":"InnoCentive","founded_year":2001.0,"category_code":"enterprise","raised":30.3,"city":"London","location":{"type":"Point","coordinates":[-0.1581968,51.5183541]}},{"index":330,"name":"Imagine Golf Club","founded_year":2008.0,"category_code":"network_hosting","raised":0.0,"city":"Edinburgh","location":{"type":"Point","coordinates":[-3.1577774,55.9735517]}},{"index":331,"name":"Property Owl","founded_year":null,"category_code":"software","raised":0.0,"city":"London","location":{"type":"Point","coordinates":[-0.18259,51.465432]}},{"index":332,"name":"Invictus Technology","founded_year":2005.0,"category_code":"consulting","raised":0.0,"city":"Birmingham","location":{"type":"Point","coordinates":[-1.9264665,52.3984972]}},{"index":333,"name":"moanlog","founded_year":null,"category_code":"web","raised":0.0,"city":"London","location":{"type":"Point","coordinates":[-0.1262362,51.5001524]}},{"index":334,"name":"ShipServ","founded_year":1999.0,"category_code":"ecommerce","raised":3.25,"city":"London","location":{"type":"Point","coordinates":[-0.263377,51.4629038]}},{"index":335,"name":"Mobyko","founded_year":2006.0,"category_code":"mobile","raised":0.0,"city":"London","location":{"type":"Point","coordinates":[-0.137494,51.5124201]}},{"index":336,"name":"myJournal","founded_year":2008.0,"category_code":"network_hosting","raised":0.0,"city":"Bournemouth","location":{"type":"Point","coordinates":[-1.8813105,50.7229432]}},{"index":337,"name":"Clowdy","founded_year":2013.0,"category_code":"web","raised":0.0,"city":"Manchester","location":{"type":"Point","coordinates":[-2.2439492,53.4837067]}},{"index":338,"name":"Socialwrks","founded_year":2005.0,"category_code":"software","raised":0.0,"city":"Guildford","location":{"type":"Point","coordinates":[-0.6126472,51.2402584]}},{"index":339,"name":"SLevolution","founded_year":2007.0,"category_code":"software","raised":0.0,"city":"London","location":{"type":"Point","coordinates":[-0.1364995,51.4598249]}},{"index":340,"name":"Tiberium","founded_year":2004.0,"category_code":"software","raised":0.062,"city":"Milton Keynes","location":{"type":"Point","coordinates":[-0.7041592,52.0353334]}},{"index":341,"name":"Animal SEO","founded_year":2008.0,"category_code":"advertising","raised":0.0,"city":"Manchester","location":{"type":"Point","coordinates":[-2.187427,53.5408987]}},{"index":342,"name":"Movirtu","founded_year":2008.0,"category_code":"mobile","raised":5.5,"city":"London","location":{"type":"Point","coordinates":[-0.1815999,51.5499708]}},{"index":343,"name":"Computing Data","founded_year":2007.0,"category_code":"software","raised":0.0,"city":"Grimsargh Preston","location":{"type":"Point","coordinates":[-2.6172859,53.8070285]}},{"index":344,"name":"Bess Technology","founded_year":2007.0,"category_code":"advertising","raised":0.0,"city":"Harpenden","location":{"type":"Point","coordinates":[-0.3674379,51.8215669]}},{"index":345,"name":"Speedchecker","founded_year":2008.0,"category_code":"web","raised":0.0,"city":"Bristol","location":{"type":"Point","coordinates":[-2.6136797,51.4749263]}},{"index":346,"name":"utopia 365","founded_year":2008.0,"category_code":"mobile","raised":0.0,"city":"Romsey","location":{"type":"Point","coordinates":[-1.4750789,50.9991134]}},{"index":347,"name":"Which Web Design Company","founded_year":2007.0,"category_code":"enterprise","raised":0.0,"city":"London","location":{"type":"Point","coordinates":[-0.1262362,51.5001524]}},{"index":348,"name":"BeatPick","founded_year":2007.0,"category_code":"games_video","raised":0.0,"city":"London","location":{"type":"Point","coordinates":[-0.1262362,51.5001524]}},{"index":349,"name":"MessageSpace","founded_year":2006.0,"category_code":"advertising","raised":0.0,"city":"London","location":{"type":"Point","coordinates":[-0.1096216,51.5220744]}},{"index":350,"name":"Jake","founded_year":2002.0,"category_code":"network_hosting","raised":0.0,"city":"London","location":{"type":"Point","coordinates":[-0.1535555,51.3264445]}},{"index":351,"name":"ResponseTek","founded_year":1999.0,"category_code":"software","raised":0.0,"city":"London","location":{"type":"Point","coordinates":[-0.1262362,51.5001524]}},{"index":352,"name":"MessageBunker","founded_year":2008.0,"category_code":"enterprise","raised":0.125,"city":"Hertfordshire","location":{"type":"Point","coordinates":[-0.660258,51.793944]}},{"index":353,"name":"Adjug","founded_year":2007.0,"category_code":"advertising","raised":6.5,"city":"London","location":{"type":"Point","coordinates":[-0.1506897,51.5441671]}},{"index":354,"name":"S3CRM","founded_year":2008.0,"category_code":"advertising","raised":0.0,"city":"Sheffield","location":{"type":"Point","coordinates":[-1.4647953,53.3830548]}},{"index":355,"name":"Grapevine Talk","founded_year":2008.0,"category_code":"software","raised":0.0,"city":"London","location":{"type":"Point","coordinates":[-0.1262362,51.5001524]}},{"index":356,"name":"Skipso","founded_year":2008.0,"category_code":"cleantech","raised":0.0,"city":"London","location":{"type":"Point","coordinates":[-0.1168286,51.5206245]}},{"index":357,"name":"Amarok Multimedia","founded_year":2000.0,"category_code":"other","raised":0.0,"city":"Largs","location":{"type":"Point","coordinates":[-4.8614149,55.7852638]}},{"index":358,"name":"4AdNetworks","founded_year":null,"category_code":"software","raised":0.0,"city":"London","location":{"type":"Point","coordinates":[-0.1338595,51.5201597]}},{"index":359,"name":"Valuebound","founded_year":2005.0,"category_code":"ecommerce","raised":0.0,"city":"Cardiff","location":{"type":"Point","coordinates":[-3.1932605,51.5025565]}},{"index":360,"name":"artaculous","founded_year":2007.0,"category_code":"games_video","raised":0.01,"city":"Milton Keynes","location":{"type":"Point","coordinates":[-0.779005,52.13244]}},{"index":361,"name":"3C Limited","founded_year":2007.0,"category_code":"web","raised":0.0,"city":"London","location":{"type":"Point","coordinates":[-0.104579,51.5026763]}},{"index":362,"name":"Ivoire Consultancy","founded_year":2007.0,"category_code":"consulting","raised":0.0,"city":"Bristol","location":{"type":"Point","coordinates":[-2.5949734,51.4348382]}},{"index":363,"name":"Vizimo","founded_year":null,"category_code":"web","raised":0.0,"city":"Cramlington , Northumberland","location":{"type":"Point","coordinates":[-1.6023183,55.0938085]}},{"index":364,"name":"Busuu","founded_year":2008.0,"category_code":"social","raised":4.7,"city":"London","location":{"type":"Point","coordinates":[0.6553168,51.5480857]}},{"index":365,"name":"t5m","founded_year":2007.0,"category_code":"other","raised":0.0,"city":"","location":{"type":"Point","coordinates":[-0.1426922,51.5145168]}},{"index":366,"name":"SupplierSelect","founded_year":2005.0,"category_code":"web","raised":0.0,"city":"London","location":{"type":"Point","coordinates":[-0.1427993,51.5137321]}},{"index":367,"name":"mydeco","founded_year":2007.0,"category_code":"web","raised":15.625,"city":"London","location":{"type":"Point","coordinates":[-0.468617,51.518101]}},{"index":368,"name":"Aconex","founded_year":2000.0,"category_code":"software","raised":85.0,"city":"London","location":{"type":"Point","coordinates":[-0.1200848,51.5117478]}},{"index":369,"name":"Did it Leak","founded_year":2007.0,"category_code":"games_video","raised":0.0,"city":"Belfast","location":{"type":"Point","coordinates":[-5.9301088,54.5972686]}},{"index":370,"name":"EasyDate","founded_year":2002.0,"category_code":"other","raised":0.0,"city":"Edinburgh","location":{"type":"Point","coordinates":[-3.2151393,55.9485591]}},{"index":371,"name":"Clarabridge","founded_year":2005.0,"category_code":"enterprise","raised":84.3,"city":"London","location":{"type":"Point","coordinates":[-0.2617681,51.4918451]}},{"index":372,"name":"GymFu","founded_year":2009.0,"category_code":"web","raised":0.0,"city":"Ringwood, Hampshire","location":{"type":"Point","coordinates":[-1.7884785,50.841938]}},{"index":373,"name":"The Big Domain","founded_year":2003.0,"category_code":"web","raised":0.0,"city":"Bideford","location":{"type":"Point","coordinates":[-5.2738154,50.0482095]}},{"index":374,"name":"LeadPoint","founded_year":2004.0,"category_code":"enterprise","raised":12.5,"city":"London","location":{"type":"Point","coordinates":[-0.1410218,51.5177117]}},{"index":375,"name":"KRM Software","founded_year":2006.0,"category_code":"consulting","raised":0.0,"city":"Rowlands Gill","location":{"type":"Point","coordinates":[-1.757054,54.9168025]}},{"index":376,"name":"Digital Face","founded_year":2003.0,"category_code":"network_hosting","raised":0.0,"city":"Edinburgh","location":{"type":"Point","coordinates":[0.1600278,52.677577]}},{"index":377,"name":"Demotix","founded_year":2008.0,"category_code":"web","raised":0.0,"city":"London","location":{"type":"Point","coordinates":[-0.2065907,51.5374249]}},{"index":378,"name":"Make It Rain","founded_year":2008.0,"category_code":"advertising","raised":0.0,"city":"London","location":{"type":"Point","coordinates":[-0.139082,51.4626]}},{"index":379,"name":"CareerPlayer","founded_year":2008.0,"category_code":"games_video","raised":0.0,"city":"London","location":{"type":"Point","coordinates":[-0.1262362,51.5001524]}},{"index":380,"name":"Bid for Wine","founded_year":2008.0,"category_code":"ecommerce","raised":0.0,"city":"Exeter","location":{"type":"Point","coordinates":[-3.4934555,50.7492228]}},{"index":381,"name":"Kramaley Games","founded_year":2008.0,"category_code":"games_video","raised":0.0,"city":"London","location":{"type":"Point","coordinates":[-0.1479318,51.4944999]}},{"index":382,"name":"storm ideas","founded_year":2008.0,"category_code":"enterprise","raised":0.0,"city":"Edinburgh","location":{"type":"Point","coordinates":[-3.2044645,55.9581361]}},{"index":383,"name":"Quick TV","founded_year":2007.0,"category_code":"enterprise","raised":3.613,"city":"Newcastle Upon Tyne","location":{"type":"Point","coordinates":[-1.6194034,54.971065]}},{"index":384,"name":"Quick TV","founded_year":2007.0,"category_code":"enterprise","raised":3.613,"city":"London","location":{"type":"Point","coordinates":[-0.1392765,51.5115309]}},{"index":385,"name":"BrightTALK","founded_year":2002.0,"category_code":"software","raised":20.5,"city":"London","location":{"type":"Point","coordinates":[-0.0970749,51.5157682]}},{"index":386,"name":"Filmed Media","founded_year":2008.0,"category_code":"games_video","raised":0.0,"city":"London","location":{"type":"Point","coordinates":[-0.2055081,51.5359008]}},{"index":387,"name":"People for Earth","founded_year":2008.0,"category_code":"other","raised":0.0,"city":"London","location":{"type":"Point","coordinates":[-0.1262362,51.5001524]}},{"index":388,"name":"Spoonfed","founded_year":2006.0,"category_code":"games_video","raised":0.596,"city":"London","location":{"type":"Point","coordinates":[-1.2186724,51.7577453]}},{"index":389,"name":"BizAps","founded_year":null,"category_code":"web","raised":0.0,"city":"London","location":{"type":"Point","coordinates":[-0.2730612,51.4926213]}},{"index":390,"name":"estatecreate","founded_year":2008.0,"category_code":"public_relations","raised":0.0,"city":"London","location":{"type":"Point","coordinates":[-0.166813,51.5186196]}},{"index":391,"name":"QuickPlay Media","founded_year":2003.0,"category_code":"enterprise","raised":138.0,"city":"London","location":{"type":"Point","coordinates":[-0.281845,51.491028]}},{"index":392,"name":"sexietv","founded_year":2008.0,"category_code":"software","raised":0.0,"city":"london","location":{"type":"Point","coordinates":[-0.2075938,51.4213618]}},{"index":393,"name":"DemandTec","founded_year":1999.0,"category_code":"software","raised":6.0,"city":"London","location":{"type":"Point","coordinates":[-0.1249337,51.5069206]}},{"index":394,"name":"WeDoCreative","founded_year":2006.0,"category_code":"consulting","raised":0.0,"city":"London","location":{"type":"Point","coordinates":[-0.1364327,51.4993689]}},{"index":395,"name":"Emoshape","founded_year":2007.0,"category_code":"software","raised":0.0,"city":"London","location":{"type":"Point","coordinates":[-0.1158832,51.5123833]}},{"index":396,"name":"Cobra Mobile","founded_year":null,"category_code":"mobile","raised":0.0,"city":"Dundee, Scotland","location":{"type":"Point","coordinates":[-2.9765094,56.4585402]}},{"index":397,"name":"Dean Marshall Consultancy","founded_year":2008.0,"category_code":"consulting","raised":0.0,"city":"Lancaster","location":{"type":"Point","coordinates":[-2.7993768,54.0648711]}},{"index":398,"name":"Sona Web","founded_year":2008.0,"category_code":"advertising","raised":0.0,"city":"Leeds","location":{"type":"Point","coordinates":[-1.605237,53.857596]}},{"index":399,"name":"Team Rubber","founded_year":2001.0,"category_code":"advertising","raised":0.0,"city":"London","location":{"type":"Point","coordinates":[-0.1316318,51.5137373]}},{"index":400,"name":"Ruby50","founded_year":2008.0,"category_code":"public_relations","raised":0.0,"city":"Croydon","location":{"type":"Point","coordinates":[-0.1855258,51.5174054]}},{"index":401,"name":"Printerinks","founded_year":null,"category_code":"hardware","raised":0.0,"city":"London","location":{"type":"Point","coordinates":[-0.3853916,51.5563527]}},{"index":402,"name":"Niggle","founded_year":2007.0,"category_code":"public_relations","raised":0.0,"city":"Woking, Surrey","location":{"type":"Point","coordinates":[-0.565758,51.3181075]}},{"index":403,"name":"Tata Communications","founded_year":1972.0,"category_code":"other","raised":0.0,"city":"London","location":{"type":"Point","coordinates":[-0.08665,51.5139146]}},{"index":404,"name":"Civolution","founded_year":2008.0,"category_code":"security","raised":0.0,"city":"London","location":{"type":"Point","coordinates":[-0.1253299,51.514653]}},{"index":405,"name":"Shutl","founded_year":2009.0,"category_code":"ecommerce","raised":9.575,"city":"London","location":{"type":"Point","coordinates":[-0.1020265,51.5196135]}},{"index":406,"name":"Localphone","founded_year":2007.0,"category_code":"mobile","raised":0.0,"city":"Sheffield","location":{"type":"Point","coordinates":[-1.470047,53.3839456]}},{"index":407,"name":"Masabi","founded_year":2001.0,"category_code":"mobile","raised":8.8,"city":"London","location":{"type":"Point","coordinates":[-0.0965536,51.503753]}},{"index":408,"name":"Showtime Studios","founded_year":2008.0,"category_code":"public_relations","raised":0.0,"city":"Birmingham","location":{"type":"Point","coordinates":[-1.9023414,52.4869442]}},{"index":409,"name":"Zestia","founded_year":2007.0,"category_code":"enterprise","raised":0.0,"city":"Wilmsl","location":{"type":"Point","coordinates":[-2.237738,53.305196]}},{"index":410,"name":"AfterWorkDeals","founded_year":2008.0,"category_code":"mobile","raised":0.0,"city":"London","location":{"type":"Point","coordinates":[-0.1886272,51.4918635]}},{"index":411,"name":"Online CC","founded_year":1998.0,"category_code":"advertising","raised":0.0,"city":"London","location":{"type":"Point","coordinates":[-0.1033237,51.5312232]}},{"index":412,"name":"Rassami","founded_year":2003.0,"category_code":"consulting","raised":0.0,"city":"London","location":{"type":"Point","coordinates":[-0.1262362,51.5001524]}},{"index":413,"name":"TwistedTree","founded_year":null,"category_code":"consulting","raised":0.0,"city":"London","location":{"type":"Point","coordinates":[-0.1262362,51.5001524]}},{"index":414,"name":"WANdisco","founded_year":2005.0,"category_code":"software","raised":45.0,"city":"Sheffield","location":{"type":"Point","coordinates":[-1.4629301,53.3800107]}},{"index":415,"name":"VouChaCha","founded_year":2009.0,"category_code":"mobile","raised":0.0,"city":"London","location":{"type":"Point","coordinates":[-0.1262362,51.5001524]}},{"index":416,"name":"ITI Scotland","founded_year":2003.0,"category_code":"other","raised":0.0,"city":"Glasgow","location":{"type":"Point","coordinates":[-4.259505,55.8627073]}},{"index":417,"name":"Icreon Communications","founded_year":2000.0,"category_code":"software","raised":0.0,"city":"London","location":{"type":"Point","coordinates":[-0.1614896,51.4647321]}},{"index":418,"name":"Icreon Communications","founded_year":2000.0,"category_code":"software","raised":0.0,"city":"Bradford","location":{"type":"Point","coordinates":[-1.7167505,53.7906412]}},{"index":419,"name":"The PODFather","founded_year":2008.0,"category_code":"enterprise","raised":0.0,"city":"Edinburgh","location":{"type":"Point","coordinates":[-3.1834833,55.94962]}},{"index":420,"name":"eModeration","founded_year":2002.0,"category_code":"other","raised":0.0,"city":"London","location":{"type":"Point","coordinates":[-0.1065551,51.5195795]}},{"index":421,"name":"WIT Software","founded_year":2001.0,"category_code":"software","raised":0.0,"city":"Reading","location":{"type":"Point","coordinates":[-0.9354555,51.4416686]}},{"index":422,"name":"WIT Software","founded_year":2001.0,"category_code":"software","raised":0.0,"city":"Reading","location":{"type":"Point","coordinates":[-0.9354555,51.4416686]}},{"index":423,"name":"ShopCorn UK","founded_year":2008.0,"category_code":"ecommerce","raised":0.0,"city":"Watford","location":{"type":"Point","coordinates":[-0.3982031,51.6548556]}},{"index":424,"name":"Rouse Media","founded_year":2009.0,"category_code":"public_relations","raised":0.0,"city":"Coventry","location":{"type":"Point","coordinates":[-1.4761532,52.4087359]}},{"index":425,"name":"Neutron Creations","founded_year":2008.0,"category_code":"consulting","raised":0.0,"city":"London","location":{"type":"Point","coordinates":[-0.1597092,51.519772]}},{"index":426,"name":"LaunchMind","founded_year":2009.0,"category_code":"web","raised":0.0,"city":"London","location":{"type":"Point","coordinates":[-0.2547278,51.6214201]}},{"index":427,"name":"TVF Communications","founded_year":1983.0,"category_code":"consulting","raised":0.0,"city":"London","location":{"type":"Point","coordinates":[-0.1033237,51.5312232]}},{"index":428,"name":"Corebridge","founded_year":2004.0,"category_code":"software","raised":0.0,"city":"London","location":{"type":"Point","coordinates":[-0.1457395,51.5051974]}},{"index":429,"name":"FreshNetworks","founded_year":2007.0,"category_code":"software","raised":0.0,"city":"London","location":{"type":"Point","coordinates":[-0.11796,51.5178123]}},{"index":430,"name":"Mendeley","founded_year":2008.0,"category_code":"social","raised":2.13,"city":"London","location":{"type":"Point","coordinates":[-0.1046546,51.5224267]}},{"index":431,"name":"Concrete","founded_year":2003.0,"category_code":"software","raised":0.0,"city":"London","location":{"type":"Point","coordinates":[-0.1010535,51.5232255]}},{"index":432,"name":"VisConPro","founded_year":2002.0,"category_code":"ecommerce","raised":0.312,"city":"London","location":{"type":"Point","coordinates":[-0.11394,51.5763088]}},{"index":433,"name":"TranZfinity","founded_year":2008.0,"category_code":"mobile","raised":0.0,"city":"London","location":{"type":"Point","coordinates":[-0.1249337,51.5069206]}},{"index":434,"name":"AllYearbooks","founded_year":2004.0,"category_code":"web","raised":0.0,"city":"Cambridge","location":{"type":"Point","coordinates":[0.1380852,52.1992891]}},{"index":435,"name":"Last Post Limited","founded_year":null,"category_code":"other","raised":0.0,"city":"London","location":{"type":"Point","coordinates":[-0.1043766,51.5270568]}},{"index":436,"name":"timetotrade","founded_year":2006.0,"category_code":"web","raised":0.0,"city":"Brighton","location":{"type":"Point","coordinates":[-0.1262241,50.8189967]}},{"index":437,"name":"Cognitive Match","founded_year":2009.0,"category_code":"advertising","raised":10.2,"city":"London","location":{"type":"Point","coordinates":[-0.0936688,51.5119418]}},{"index":438,"name":"rent2friend","founded_year":2009.0,"category_code":"web","raised":0.0,"city":"London","location":{"type":"Point","coordinates":[-0.1262362,51.5001524]}},{"index":439,"name":"Guava UK","founded_year":1999.0,"category_code":"search","raised":0.0,"city":"Camborne","location":{"type":"Point","coordinates":[114.11768,22.351717]}},{"index":440,"name":"izeezi","founded_year":null,"category_code":"software","raised":0.0,"city":"CHIPPENHAM","location":{"type":"Point","coordinates":[-2.106256,51.448232]}},{"index":441,"name":"recombitex","founded_year":2008.0,"category_code":"biotech","raised":0.0,"city":"Liverpool","location":{"type":"Point","coordinates":[-3.0092343,53.4202938]}},{"index":442,"name":"Out the Blue","founded_year":2006.0,"category_code":"advertising","raised":0.0,"city":"Leicester","location":{"type":"Point","coordinates":[-1.0825807,52.5984326]}},{"index":443,"name":"Masterpiece","founded_year":1999.0,"category_code":"advertising","raised":0.0,"city":"London","location":{"type":"Point","coordinates":[-0.0833747,51.5219131]}},{"index":444,"name":"Sentry Parental Controls","founded_year":2008.0,"category_code":"software","raised":0.0,"city":"Manchester","location":{"type":"Point","coordinates":[-2.2550847,53.5195474]}},{"index":445,"name":"ePartners","founded_year":1992.0,"category_code":"software","raised":25.0,"city":"London","location":{"type":"Point","coordinates":[-0.0865272,51.5123703]}},{"index":446,"name":"GradeGuru","founded_year":2008.0,"category_code":"other","raised":0.0,"city":"Berkshire","location":{"type":"Point","coordinates":[-0.728449,51.512032]}},{"index":447,"name":"Atraverda","founded_year":2005.0,"category_code":"cleantech","raised":20.75,"city":"Abertillery, Gwent,","location":{"type":"Point","coordinates":[-82.2927796,23.066066]}},{"index":448,"name":"BioVex","founded_year":2006.0,"category_code":"biotech","raised":122.0,"city":"Oxon","location":{"type":"Point","coordinates":[-1.289082,51.671711]}},{"index":449,"name":"Abacus e-Media","founded_year":1977.0,"category_code":"software","raised":2.812,"city":"London","location":{"type":"Point","coordinates":[-0.1335871,51.5088058]}},{"index":450,"name":"RadioScape","founded_year":1996.0,"category_code":"hardware","raised":19.5,"city":"London","location":{"type":"Point","coordinates":[-0.1442311,51.5249464]}},{"index":451,"name":"Sift","founded_year":1996.0,"category_code":"software","raised":4.675,"city":"Bristol","location":{"type":"Point","coordinates":[-2.5869272,51.451168]}},{"index":452,"name":"Surfkitchen","founded_year":1999.0,"category_code":"mobile","raised":12.0,"city":"Reading","location":{"type":"Point","coordinates":[-0.9862367,51.4245551]}},{"index":453,"name":"Scottsdale Futures and Options Limited","founded_year":1957.0,"category_code":"other","raised":0.0,"city":"London","location":{"type":"Point","coordinates":[-0.3313702,51.5949018]}},{"index":454,"name":"SnapPitch","founded_year":2008.0,"category_code":"other","raised":0.0,"city":"Leeds","location":{"type":"Point","coordinates":[-1.5553372,53.7948876]}},{"index":455,"name":"Studentbox","founded_year":2008.0,"category_code":"other","raised":0.0,"city":"London","location":{"type":"Point","coordinates":[-0.0921218,51.5292245]}},{"index":456,"name":"Pitchero","founded_year":2008.0,"category_code":"web","raised":0.0,"city":"Leeds","location":{"type":"Point","coordinates":[-1.524702,53.687153]}},{"index":457,"name":"JoggingBuddy","founded_year":2008.0,"category_code":"web","raised":0.0,"city":"Cambridge","location":{"type":"Point","coordinates":[0.1312368,52.2025441]}},{"index":458,"name":"Lumar","founded_year":2005.0,"category_code":"consulting","raised":0.0,"city":"Ilford","location":{"type":"Point","coordinates":[0.1059593,51.5823388]}},{"index":459,"name":"Subzero Software","founded_year":2008.0,"category_code":"mobile","raised":0.0,"city":"London","location":{"type":"Point","coordinates":[-0.1080873,51.5347897]}},{"index":460,"name":"Boring","founded_year":2007.0,"category_code":"other","raised":0.0,"city":"London","location":{"type":"Point","coordinates":[-0.0740678,51.5183725]}},{"index":461,"name":"Verisim","founded_year":2001.0,"category_code":"software","raised":1.5,"city":"Edinburgh","location":{"type":"Point","coordinates":[-3.3090825,55.934152]}},{"index":462,"name":"Holiday Watchdog","founded_year":2004.0,"category_code":"web","raised":0.0,"city":"London","location":{"type":"Point","coordinates":[-0.1327293,51.5151513]}},{"index":463,"name":"Zinwave","founded_year":2005.0,"category_code":"mobile","raised":18.875,"city":"Cambridge","location":{"type":"Point","coordinates":[0.0732335,52.1367844]}},{"index":464,"name":"Zoombu","founded_year":2008.0,"category_code":"search","raised":0.0,"city":"London","location":{"type":"Point","coordinates":[-0.1262362,51.5001524]}},{"index":465,"name":"asuitthatfits","founded_year":null,"category_code":null,"raised":0.0,"city":"London","location":{"type":"Point","coordinates":[-0.0708922,51.4281599]}},{"index":466,"name":"Solarenergy-solarpower","founded_year":2007.0,"category_code":"consulting","raised":0.0,"city":"London","location":{"type":"Point","coordinates":[-0.0741379,51.4843838]}},{"index":467,"name":"Lingo24","founded_year":2001.0,"category_code":"public_relations","raised":0.0,"city":"London","location":{"type":"Point","coordinates":[-0.1405204,51.518365]}},{"index":468,"name":"Lingo24","founded_year":2001.0,"category_code":"public_relations","raised":0.0,"city":"Aberdeen","location":{"type":"Point","coordinates":[-2.1371301,57.1409474]}},{"index":469,"name":"Lingo24","founded_year":2001.0,"category_code":"public_relations","raised":0.0,"city":"Edinburgh","location":{"type":"Point","coordinates":[-3.2084985,55.953152]}},{"index":470,"name":"Musicmetric","founded_year":2008.0,"category_code":"music","raised":4.25,"city":"London","location":{"type":"Point","coordinates":[-0.0856982,51.5253765]}},{"index":471,"name":"ControlCircle","founded_year":2001.0,"category_code":"network_hosting","raised":7.5,"city":"London","location":{"type":"Point","coordinates":[-0.0178689,51.5003204]}},{"index":472,"name":"Altaine","founded_year":2002.0,"category_code":"mobile","raised":0.0,"city":"London","location":{"type":"Point","coordinates":[-0.1262362,51.5001524]}},{"index":473,"name":"i365, A Seagate Company","founded_year":2008.0,"category_code":"other","raised":0.0,"city":"Woking, Surrey","location":{"type":"Point","coordinates":[-0.5623522,51.3181203]}},{"index":474,"name":"upad","founded_year":2008.0,"category_code":"web","raised":0.0,"city":"London","location":{"type":"Point","coordinates":[-0.2023958,51.5382894]}},{"index":475,"name":"AMGas","founded_year":null,"category_code":"cleantech","raised":0.0,"city":"Bridge of Don","location":{"type":"Point","coordinates":[-2.090311,57.185937]}},{"index":476,"name":"Aspects Software","founded_year":1986.0,"category_code":"mobile","raised":21.25,"city":"","location":{"type":"Point","coordinates":[-3.186156,55.957569]}},{"index":477,"name":"Applied Insights","founded_year":2004.0,"category_code":null,"raised":0.0,"city":"","location":{"type":"Point","coordinates":[-1.2067632,51.7323594]}},{"index":478,"name":"Foviance","founded_year":2001.0,"category_code":"consulting","raised":0.0,"city":"London","location":{"type":"Point","coordinates":[-97.955538,34.01873]}},{"index":479,"name":"TV Pixie","founded_year":2009.0,"category_code":"web","raised":0.055,"city":"London","location":{"type":"Point","coordinates":[-0.1852079,51.5206682]}},{"index":480,"name":"Swiffen","founded_year":2008.0,"category_code":"games_video","raised":0.0,"city":"London","location":{"type":"Point","coordinates":[-0.0828173,51.5163382]}},{"index":481,"name":"Plug in SEO","founded_year":2012.0,"category_code":"enterprise","raised":0.0,"city":"London","location":{"type":"Point","coordinates":[-0.1262362,51.5001524]}},{"index":482,"name":"Broadersheet","founded_year":2009.0,"category_code":"web","raised":0.0,"city":"Cambridge","location":{"type":"Point","coordinates":[0.1312368,52.2025441]}},{"index":483,"name":"Restox","founded_year":2008.0,"category_code":"web","raised":0.0,"city":"","location":{"type":"Point","coordinates":[-0.1419622,51.421686]}},{"index":484,"name":"MyHandle","founded_year":2009.0,"category_code":"public_relations","raised":0.0,"city":"Jersey","location":{"type":"Point","coordinates":[-2.1077539,49.1856229]}},{"index":485,"name":"Hostway","founded_year":1998.0,"category_code":"network_hosting","raised":110.0,"city":"London","location":{"type":"Point","coordinates":[-0.0147395,51.4992488]}},{"index":486,"name":"watercompare","founded_year":2008.0,"category_code":"web","raised":0.0,"city":"london","location":{"type":"Point","coordinates":[-0.1262362,51.5001524]}},{"index":487,"name":"Specle","founded_year":2006.0,"category_code":"advertising","raised":1.121,"city":"London","location":{"type":"Point","coordinates":[-0.1067217,51.5080607]}},{"index":488,"name":"Smart AdServer","founded_year":2001.0,"category_code":"advertising","raised":0.0,"city":"Paris","location":{"type":"Point","coordinates":[2.3040091,48.8709209]}},{"index":489,"name":"Smart AdServer","founded_year":2001.0,"category_code":"advertising","raised":0.0,"city":"Berlin","location":{"type":"Point","coordinates":[13.3990981,52.5081811]}},{"index":490,"name":"Smart AdServer","founded_year":2001.0,"category_code":"advertising","raised":0.0,"city":"Paris","location":{"type":"Point","coordinates":[-8.5255155,42.8839162]}},{"index":491,"name":"Teachable","founded_year":2007.0,"category_code":"ecommerce","raised":0.1,"city":"Basingstoke","location":{"type":"Point","coordinates":[-1.0912028,51.2057651]}},{"index":492,"name":"Folia","founded_year":2007.0,"category_code":"web","raised":0.0,"city":"","location":{"type":"Point","coordinates":[-0.1867769,51.5450909]}},{"index":493,"name":"Language Direct","founded_year":2006.0,"category_code":"other","raised":0.0,"city":"London","location":{"type":"Point","coordinates":[7.6031626,47.5546712]}},{"index":494,"name":"Tweenjo","founded_year":2009.0,"category_code":"web","raised":0.0,"city":"London","location":{"type":"Point","coordinates":[-0.1459893,51.5137747]}},{"index":495,"name":"Space Spare","founded_year":2009.0,"category_code":"web","raised":0.0,"city":"London","location":{"type":"Point","coordinates":[-0.1365725,51.5603951]}},{"index":496,"name":"Ventoria","founded_year":null,"category_code":"ecommerce","raised":0.0,"city":"London","location":{"type":"Point","coordinates":[-0.1043766,51.5270568]}},{"index":497,"name":"Stream57","founded_year":1998.0,"category_code":"software","raised":0.0,"city":"London","location":{"type":"Point","coordinates":[-0.1346112,51.5149197]}},{"index":498,"name":"Marmalade on Toast","founded_year":null,"category_code":"public_relations","raised":0.0,"city":"London","location":{"type":"Point","coordinates":[-0.1262362,51.5001524]}},{"index":499,"name":"Serious Parody","founded_year":null,"category_code":"games_video","raised":1.25,"city":"Dundee","location":{"type":"Point","coordinates":[-2.970721,56.462018]}},{"index":500,"name":"Bombadil Publishing","founded_year":2007.0,"category_code":"other","raised":0.0,"city":"Bradley Stoke Bristol","location":{"type":"Point","coordinates":[14.9716018,59.5068147]}},{"index":501,"name":"Indiconews","founded_year":2007.0,"category_code":"web","raised":0.0,"city":"Canterbury","location":{"type":"Point","coordinates":[1.0805173,51.2772689]}},{"index":502,"name":"Ayima","founded_year":2007.0,"category_code":"search","raised":0.0,"city":"London","location":{"type":"Point","coordinates":[-0.1036021,51.5211504]}},{"index":503,"name":"Acotis Jewellery","founded_year":2000.0,"category_code":"other","raised":0.0,"city":"Wolverhampton","location":{"type":"Point","coordinates":[-2.171023,52.597341]}},{"index":504,"name":"Bluewolf","founded_year":2000.0,"category_code":"consulting","raised":0.0,"city":"Reading, Berkshire","location":{"type":"Point","coordinates":[-0.8994375,51.4373027]}},{"index":505,"name":"Red Engineering Design","founded_year":2004.0,"category_code":"consulting","raised":0.0,"city":"London","location":{"type":"Point","coordinates":[-0.1398614,51.5234209]}},{"index":506,"name":"A2B Office Technology","founded_year":1991.0,"category_code":"hardware","raised":0.0,"city":"Bury","location":{"type":"Point","coordinates":[-2.3230453,53.5870714]}},{"index":507,"name":"Indian Ridge Florida","founded_year":1996.0,"category_code":"other","raised":0.0,"city":"uk","location":{"type":"Point","coordinates":[-2.6843136,52.0539311]}},{"index":508,"name":"FinderMonkey","founded_year":2007.0,"category_code":"search","raised":0.0,"city":"leeds","location":{"type":"Point","coordinates":[-1.522118,53.752225]}},{"index":509,"name":"Huge","founded_year":1999.0,"category_code":"consulting","raised":0.0,"city":"London","location":{"type":"Point","coordinates":[-0.1652217,51.4920878]}},{"index":510,"name":"EPAM Systems","founded_year":1993.0,"category_code":"software","raised":50.0,"city":"London","location":{"type":"Point","coordinates":[-0.0881016,51.5154835]}},{"index":511,"name":"Pressitt","founded_year":2009.0,"category_code":"network_hosting","raised":0.0,"city":"Bournemouth","location":{"type":"Point","coordinates":[-1.818289,50.732295]}},{"index":512,"name":"Netbiscuits","founded_year":2000.0,"category_code":"mobile","raised":27.0,"city":"London","location":{"type":"Point","coordinates":[-0.1547377,51.513248]}},{"index":513,"name":"Promotion Space Group","founded_year":2003.0,"category_code":"advertising","raised":0.0,"city":"London","location":{"type":"Point","coordinates":[-0.1356064,51.49695]}},{"index":514,"name":"Bags Direct","founded_year":null,"category_code":"ecommerce","raised":0.0,"city":"Northampton","location":{"type":"Point","coordinates":[-0.8590919,52.2182759]}},{"index":515,"name":"FeraLabs","founded_year":null,"category_code":"software","raised":0.0,"city":"Hastings","location":{"type":"Point","coordinates":[0.5724753,50.8553458]}},{"index":516,"name":"Owngig","founded_year":2008.0,"category_code":"games_video","raised":0.0,"city":"London","location":{"type":"Point","coordinates":[22.76303,39.39615]}},{"index":517,"name":"Eglue Business Technologies","founded_year":2001.0,"category_code":"software","raised":27.0,"city":"London","location":{"type":"Point","coordinates":[-0.1392765,51.5115309]}},{"index":518,"name":"Corvil","founded_year":2000.0,"category_code":"other","raised":31.5,"city":"London","location":{"type":"Point","coordinates":[-0.0828519,51.5175331]}},{"index":519,"name":"Breakaway Communications","founded_year":2004.0,"category_code":"public_relations","raised":0.0,"city":"London","location":{"type":"Point","coordinates":[-0.1379199,51.5755277]}},{"index":520,"name":"Aria Networks","founded_year":2005.0,"category_code":"software","raised":9.05,"city":"Chippenham","location":{"type":"Point","coordinates":[-2.1334555,51.4515283]}},{"index":521,"name":"Garlik","founded_year":2005.0,"category_code":"software","raised":24.7,"city":"Richmond","location":{"type":"Point","coordinates":[-0.295441,51.462108]}},{"index":522,"name":"Mozbox Limited","founded_year":2009.0,"category_code":"other","raised":0.0,"city":"Andover","location":{"type":"Point","coordinates":[-1.510484,51.193175]}},{"index":523,"name":"ZodBod","founded_year":2009.0,"category_code":"web","raised":0.031,"city":"Bath","location":{"type":"Point","coordinates":[-2.3626891,51.3891333]}},{"index":524,"name":"Ruby Mill","founded_year":null,"category_code":"other","raised":0.0,"city":"London","location":{"type":"Point","coordinates":[-0.0952651,51.528933]}},{"index":525,"name":"Zensify","founded_year":2006.0,"category_code":"web","raised":0.0,"city":"London","location":{"type":"Point","coordinates":[-0.146659,51.4940757]}},{"index":526,"name":"Warwick Warp","founded_year":null,"category_code":"software","raised":1.19,"city":"Coventry","location":{"type":"Point","coordinates":[-1.558831,52.3867537]}},{"index":527,"name":"Autoquake","founded_year":2005.0,"category_code":"ecommerce","raised":39.9,"city":"London","location":{"type":"Point","coordinates":[-0.172364,51.543337]}},{"index":528,"name":"Infoflow","founded_year":2006.0,"category_code":"software","raised":0.457,"city":"Sheffield","location":{"type":"Point","coordinates":[-0.3027629,51.4624198]}},{"index":529,"name":"1Scan","founded_year":2004.0,"category_code":"other","raised":0.0,"city":"Brentwood","location":{"type":"Point","coordinates":[0.3048195,51.6243061]}},{"index":530,"name":"Real Time Content","founded_year":2006.0,"category_code":"advertising","raised":0.0,"city":"London","location":{"type":"Point","coordinates":[-0.1424094,51.5209358]}},{"index":531,"name":"Rapid Action Packaging","founded_year":1997.0,"category_code":"cleantech","raised":7.92,"city":"London","location":{"type":"Point","coordinates":[-0.2611303,51.4698433]}},{"index":532,"name":"Schway","founded_year":2007.0,"category_code":"ecommerce","raised":0.0,"city":"London","location":{"type":"Point","coordinates":[-0.1361616,51.519816]}},{"index":533,"name":"IntraWorlds","founded_year":2002.0,"category_code":"software","raised":0.0,"city":"London","location":{"type":"Point","coordinates":[-0.1065563,51.5033235]}},{"index":534,"name":"OnePage","founded_year":2009.0,"category_code":"web","raised":0.0,"city":"Birmingham","location":{"type":"Point","coordinates":[-1.5613493,53.3706564]}},{"index":535,"name":"River Horse","founded_year":2007.0,"category_code":"games_video","raised":0.0,"city":"Wollaton (Nottingham)","location":{"type":"Point","coordinates":[-1.217092,52.955042]}},{"index":536,"name":"Go Test It","founded_year":2007.0,"category_code":"network_hosting","raised":0.0,"city":"Cambridge","location":{"type":"Point","coordinates":[0.1987426,52.1963733]}},{"index":537,"name":"nimtree consulting","founded_year":null,"category_code":"consulting","raised":0.0,"city":"Sutton","location":{"type":"Point","coordinates":[-0.1924458,51.3530788]}},{"index":538,"name":"Zookel","founded_year":2008.0,"category_code":"web","raised":0.0,"city":"London","location":{"type":"Point","coordinates":[-0.0994596,51.5203268]}},{"index":539,"name":"isango!","founded_year":2006.0,"category_code":"web","raised":8.0,"city":"London","location":{"type":"Point","coordinates":[-0.1361616,51.519816]}},{"index":540,"name":"Bar Exchange","founded_year":2009.0,"category_code":"web","raised":0.0,"city":"London","location":{"type":"Point","coordinates":[-0.1525048,51.5395914]}},{"index":541,"name":"SocialNet Circle","founded_year":2008.0,"category_code":"software","raised":0.0,"city":"Bracknell","location":{"type":"Point","coordinates":[-0.746479,51.417026]}},{"index":542,"name":"Four Colors","founded_year":2008.0,"category_code":"search","raised":0.0,"city":"London","location":{"type":"Point","coordinates":[-0.2332,51.406773]}},{"index":543,"name":"Netsize","founded_year":1998.0,"category_code":"mobile","raised":16.8,"city":"London","location":{"type":"Point","coordinates":[-0.1262362,51.5001524]}},{"index":544,"name":"Adword Success","founded_year":null,"category_code":"advertising","raised":0.0,"city":"Greater London","location":{"type":"Point","coordinates":[0.0499962,51.5807353]}},{"index":545,"name":"Adeye Mobile","founded_year":2007.0,"category_code":"advertising","raised":0.0,"city":"London","location":{"type":"Point","coordinates":[-0.1297711,51.515129]}},{"index":546,"name":"Tribold","founded_year":2003.0,"category_code":"software","raised":28.1,"city":"London","location":{"type":"Point","coordinates":[-0.1424094,51.5209358]}},{"index":547,"name":"Padz","founded_year":2008.0,"category_code":"search","raised":0.0,"city":"London","location":{"type":"Point","coordinates":[-0.1153003,51.5220763]}},{"index":548,"name":"Copybook Solutions","founded_year":null,"category_code":"advertising","raised":0.0,"city":"Tiverton","location":{"type":"Point","coordinates":[-3.4810902,50.90609]}},{"index":549,"name":"Copybook Solutions","founded_year":null,"category_code":"advertising","raised":0.0,"city":"Exeter","location":{"type":"Point","coordinates":[-3.498046,50.721453]}},{"index":550,"name":"Broadband Expert","founded_year":null,"category_code":"mobile","raised":0.0,"city":"Essex","location":{"type":"Point","coordinates":[0.4665569,51.7283261]}},{"index":551,"name":"TextMagic","founded_year":2001.0,"category_code":"mobile","raised":0.0,"city":"Cambridge","location":{"type":"Point","coordinates":[0.1312368,52.2025441]}},{"index":552,"name":"Tug","founded_year":2006.0,"category_code":"search","raised":0.0,"city":"London","location":{"type":"Point","coordinates":[-0.0830772,51.5246619]}},{"index":553,"name":"En-Twyn","founded_year":2004.0,"category_code":"network_hosting","raised":0.0,"city":"London","location":{"type":"Point","coordinates":[-0.1937731,51.6104102]}},{"index":554,"name":"GCDUK Search","founded_year":2005.0,"category_code":"consulting","raised":0.0,"city":"Harrogate","location":{"type":"Point","coordinates":[-1.5391117,53.990615]}},{"index":555,"name":"The Hyperwords Company","founded_year":null,"category_code":"web","raised":0.0,"city":"London","location":{"type":"Point","coordinates":[-0.1356915,51.5114438]}},{"index":556,"name":"Greenvoice","founded_year":2007.0,"category_code":"web","raised":0.0,"city":"London","location":{"type":"Point","coordinates":[-0.0874239,51.5147349]}},{"index":557,"name":"ipadio","founded_year":2009.0,"category_code":"messaging","raised":1.6,"city":"London","location":{"type":"Point","coordinates":[0.0118608,51.8205815]}},{"index":558,"name":"AgreeYourFee","founded_year":2009.0,"category_code":"advertising","raised":0.0,"city":"London","location":{"type":"Point","coordinates":[-0.1262362,51.5001524]}},{"index":559,"name":"GetItWithMe","founded_year":2007.0,"category_code":"web","raised":0.0,"city":"London","location":{"type":"Point","coordinates":[-0.1162418,51.5793731]}},{"index":560,"name":"Rabbit Technologies","founded_year":2007.0,"category_code":"software","raised":0.0,"city":"London","location":{"type":"Point","coordinates":[-0.27548,51.55738]}},{"index":561,"name":"whatjobsite","founded_year":2006.0,"category_code":"other","raised":0.0,"city":"London","location":{"type":"Point","coordinates":[-0.1262362,51.5001524]}},{"index":562,"name":"Posh Eyes","founded_year":2002.0,"category_code":"ecommerce","raised":0.003,"city":"Oxford","location":{"type":"Point","coordinates":[-1.2219376,51.7300998]}},{"index":563,"name":"Enternships","founded_year":2009.0,"category_code":"web","raised":0.0,"city":"London","location":{"type":"Point","coordinates":[-0.1038219,51.5215279]}},{"index":564,"name":"Bandstocks","founded_year":null,"category_code":"games_video","raised":0.0,"city":"London","location":{"type":"Point","coordinates":[-0.1261853,51.5142132]}},{"index":565,"name":"Comufy","founded_year":2009.0,"category_code":"public_relations","raised":0.0,"city":"London","location":{"type":"Point","coordinates":[-0.1153003,51.5220763]}},{"index":566,"name":"LearningMate","founded_year":2003.0,"category_code":"software","raised":0.0,"city":"London","location":{"type":"Point","coordinates":[-0.1169935,51.5241069]}},{"index":567,"name":"oneDrum","founded_year":2008.0,"category_code":"enterprise","raised":1.25,"city":"London","location":{"type":"Point","coordinates":[-0.1262362,51.5001524]}},{"index":568,"name":"oneDrum","founded_year":2008.0,"category_code":"enterprise","raised":1.25,"city":"Stirling","location":{"type":"Point","coordinates":[-3.935882,56.1194238]}},{"index":569,"name":"BioMed Central","founded_year":2000.0,"category_code":"ecommerce","raised":0.0,"city":"London","location":{"type":"Point","coordinates":[-0.111509,51.5186118]}},{"index":570,"name":"Smarta","founded_year":null,"category_code":"enterprise","raised":0.0,"city":"London","location":{"type":"Point","coordinates":[-0.1326886,51.5201309]}},{"index":571,"name":"YCD Multimedia","founded_year":1999.0,"category_code":"software","raised":32.5,"city":"Glasgow","location":{"type":"Point","coordinates":[-4.2689907,55.8530195]}},{"index":572,"name":"PicFog","founded_year":2009.0,"category_code":"search","raised":0.0,"city":"London","location":{"type":"Point","coordinates":[-0.2867703,51.4770982]}},{"index":573,"name":"ICU Global","founded_year":2002.0,"category_code":"public_relations","raised":0.0,"city":"London","location":{"type":"Point","coordinates":[-1.2192678,51.7575498]}},{"index":574,"name":"Holdsworth Associates","founded_year":null,"category_code":"public_relations","raised":0.0,"city":"Cambridge","location":{"type":"Point","coordinates":[0.119827,52.20597]}},{"index":575,"name":"Keen Software House","founded_year":2007.0,"category_code":"games_video","raised":0.0,"city":"London","location":{"type":"Point","coordinates":[-0.1153003,51.5220763]}},{"index":576,"name":"Aldous","founded_year":null,"category_code":"software","raised":0.0,"city":"Windsor","location":{"type":"Point","coordinates":[-0.6077302,51.485299]}},{"index":577,"name":"PostalMethods","founded_year":1996.0,"category_code":"public_relations","raised":0.0,"city":"London","location":{"type":"Point","coordinates":[-0.143398,51.4940898]}},{"index":578,"name":"Myhive","founded_year":2009.0,"category_code":"mobile","raised":0.0,"city":"London","location":{"type":"Point","coordinates":[-0.1996418,51.5514688]}},{"index":579,"name":"Relex Software","founded_year":1986.0,"category_code":"software","raised":0.0,"city":"Rugeley","location":{"type":"Point","coordinates":[-1.9346097,52.7570377]}},{"index":580,"name":"Layer 7 Technologies","founded_year":2003.0,"category_code":"software","raised":19.9,"city":"Surrey","location":{"type":"Point","coordinates":[-0.5813902,51.2357089]}},{"index":581,"name":"FireScope","founded_year":2006.0,"category_code":"software","raised":9.91,"city":"London","location":{"type":"Point","coordinates":[-0.1262362,51.5001524]}},{"index":582,"name":"DoTradeEasy","founded_year":2008.0,"category_code":"advertising","raised":0.0,"city":"London","location":{"type":"Point","coordinates":[-0.1043766,51.5270568]}},{"index":583,"name":"Flirtomatic","founded_year":2006.0,"category_code":"social","raised":9.0,"city":"London","location":{"type":"Point","coordinates":[-0.0956262,51.5272363]}},{"index":584,"name":"Struq","founded_year":2008.0,"category_code":"advertising","raised":8.5,"city":"London","location":{"type":"Point","coordinates":[-0.1366861,51.5152023]}},{"index":585,"name":"OmPrompt","founded_year":null,"category_code":"enterprise","raised":1.25,"city":"Oxfordshire","location":{"type":"Point","coordinates":[-1.289082,51.671711]}},{"index":586,"name":"IDL Systems","founded_year":1989.0,"category_code":"software","raised":0.0,"city":"Bidford-On-Avon, Alcester","location":{"type":"Point","coordinates":[-1.8626548,52.164928]}},{"index":587,"name":"Lateral Net","founded_year":null,"category_code":"public_relations","raised":0.0,"city":"London","location":{"type":"Point","coordinates":[-0.1420176,51.5185322]}},{"index":588,"name":"FNZ","founded_year":2003.0,"category_code":"finance","raised":0.0,"city":"London","location":{"type":"Point","coordinates":[-0.1198244,51.5112139]}},{"index":589,"name":"Netfonics","founded_year":null,"category_code":"network_hosting","raised":0.0,"city":"Morecambe, Lancashire","location":{"type":"Point","coordinates":[-2.8388725,54.060457]}},{"index":590,"name":"Network Integrity Services","founded_year":null,"category_code":"enterprise","raised":0.0,"city":"Stockport, Cheshire","location":{"type":"Point","coordinates":[-2.1019319,53.3694449]}},{"index":591,"name":"ArcelorMittal","founded_year":null,"category_code":null,"raised":0.0,"city":"London","location":{"type":"Point","coordinates":[-0.146588,51.5096437]}},{"index":592,"name":"Central Test","founded_year":null,"category_code":"other","raised":0.941,"city":"LONDON","location":{"type":"Point","coordinates":[-0.1342151,51.5180538]}},{"index":593,"name":"flexjex","founded_year":2008.0,"category_code":"public_relations","raised":0.0,"city":"Cambridge","location":{"type":"Point","coordinates":[0.1312368,52.2025441]}},{"index":594,"name":"Adventi","founded_year":null,"category_code":"consulting","raised":2.93,"city":"Bellshill","location":{"type":"Point","coordinates":[-4.0397147,55.8258935]}},{"index":595,"name":"Testplant","founded_year":2008.0,"category_code":"software","raised":2.56,"city":"London","location":{"type":"Point","coordinates":[-0.1037742,51.517356]}},{"index":596,"name":"famebook","founded_year":2008.0,"category_code":"web","raised":0.0,"city":"London","location":{"type":"Point","coordinates":[-0.1262362,51.5001524]}},{"index":597,"name":"Ultra Electronics","founded_year":null,"category_code":"hardware","raised":1.57,"city":"","location":{"type":"Point","coordinates":[-0.3631758,51.5416173]}},{"index":598,"name":"Pro2col","founded_year":2003.0,"category_code":"software","raised":0.0,"city":"Bournemouth","location":{"type":"Point","coordinates":[-1.798915,50.72667]}},{"index":599,"name":"AgileJ Limited","founded_year":2006.0,"category_code":"software","raised":0.1,"city":"Surbiton","location":{"type":"Point","coordinates":[-0.3062632,51.393654]}},{"index":600,"name":"Pufferfish","founded_year":2004.0,"category_code":"other","raised":0.63,"city":"Edinburgh","location":{"type":"Point","coordinates":[-3.1795482,55.9345905]}},{"index":601,"name":"Mesuro","founded_year":null,"category_code":"manufacturing","raised":2.562,"city":"Pencoed","location":{"type":"Point","coordinates":[-3.49837,51.521087]}},{"index":602,"name":"iomart Group","founded_year":2000.0,"category_code":"network_hosting","raised":0.0,"city":"London","location":{"type":"Point","coordinates":[-0.0846702,51.5231142]}},{"index":603,"name":"iomart Group","founded_year":2000.0,"category_code":"network_hosting","raised":0.0,"city":"Manchester","location":{"type":"Point","coordinates":[-2.2468554,53.4651665]}},{"index":604,"name":"iomart Group","founded_year":2000.0,"category_code":"network_hosting","raised":0.0,"city":"Maidenhead","location":{"type":"Point","coordinates":[-0.7253893,51.5288219]}},{"index":605,"name":"iTradeNetwork","founded_year":1999.0,"category_code":null,"raised":0.0,"city":"Bucks","location":{"type":"Point","coordinates":[-0.9148249,51.6598743]}},{"index":606,"name":"Bookwhen","founded_year":2009.0,"category_code":"ecommerce","raised":0.0,"city":"Oxford","location":{"type":"Point","coordinates":[-1.2581049,51.7714264]}},{"index":607,"name":"smartFOCUS","founded_year":1999.0,"category_code":"software","raised":30.0,"city":"Bristol","location":{"type":"Point","coordinates":[-2.5909744,51.4525116]}},{"index":608,"name":"Aleri Global Banking","founded_year":1981.0,"category_code":"software","raised":0.0,"city":"Woking","location":{"type":"Point","coordinates":[-0.555455,51.3214057]}},{"index":609,"name":"Block Shield","founded_year":2000.0,"category_code":"hardware","raised":0.0,"city":"London","location":{"type":"Point","coordinates":[-0.114374,51.5127901]}},{"index":610,"name":"acrossair","founded_year":2009.0,"category_code":"mobile","raised":0.0,"city":"London","location":{"type":"Point","coordinates":[-0.1165365,51.5177425]}}]