[{"Store Name":"Shire Hotels Aztec West","City":"Almondsbury","location":{"type":"Point","coordinates":[-2.57,51.54]}},{"Store Name":"Altrincham - Sainsbury's","City":"Altrincham","location":{"type":"Point","coordinates":[-2.35,53.38]}},{"Store Name":"SSP Ashford","City":"Ashford","location":{"type":"Point","coordinates":[0.88,51.14]}},{"Store Name":"Ashford - High Street","City":"Ashford","location":{"type":"Point","coordinates":[0.87,51.15]}},{"Store Name":"WB Warwick North","City":"Ashorne","location":{"type":"Point","coordinates":[-1.51,52.22]}},{"Store Name":"WB Warwick Kiosk","City":"Ashorne","location":{"type":"Point","coordinates":[-1.5,52.22]}},{"Store Name":"Baldock Services - MSA A1\/A507","City":"Baldock","location":{"type":"Point","coordinates":[-0.2,52.01]}},{"Store Name":"Banbury - Banbury Gateway SP","City":"Banbury","location":{"type":"Point","coordinates":[-1.32,52.08]}},{"Store Name":"Barnes","City":"Barnes","location":{"type":"Point","coordinates":[-0.24,51.48]}},{"Store Name":"Barnet High Street","City":"Barnet","location":{"type":"Point","coordinates":[-0.2,51.66]}},{"Store Name":"Next Basildon","City":"Basildon","location":{"type":"Point","coordinates":[0.48,51.59]}},{"Store Name":"Basildon - Eastgate Centre","City":"Basildon","location":{"type":"Point","coordinates":[0.46,51.57]}},{"Store Name":"Basingstoke- Houndmills Trade Pk DT","City":"Basingstoke","location":{"type":"Point","coordinates":[-1.11,51.27]}},{"Store Name":"Basingstoke - Old Basing Mall","City":"Basingstoke","location":{"type":"Point","coordinates":[-1.08,51.27]}},{"Store Name":"Basingstoke - Festival Place UG","City":"Basingstoke","location":{"type":"Point","coordinates":[-1.09,51.27]}},{"Store Name":"SSP Bath","City":"Bath","location":{"type":"Point","coordinates":[-2.36,51.38]}},{"Store Name":"Bath - Avon Street","City":"Bath","location":{"type":"Point","coordinates":[-2.36,51.38]}},{"Store Name":"Bath - High Street","City":"Bath","location":{"type":"Point","coordinates":[-2.36,51.38]}},{"Store Name":"Beaconsfield Sainsbury's","City":"Beaconsfield","location":{"type":"Point","coordinates":[-0.64,51.61]}},{"Store Name":"Beaconsfield Services - MSA M40\/J2","City":"Beaconsfield","location":{"type":"Point","coordinates":[-0.63,51.59]}},{"Store Name":"Centre Parcs Woburn Centre","City":"Bedford","location":{"type":"Point","coordinates":[-0.49,52.03]}},{"Store Name":"Centre Parcs Woburn Poolside","City":"Bedford","location":{"type":"Point","coordinates":[-0.49,52.03]}},{"Store Name":"SSP Bedford","City":"Bedford","location":{"type":"Point","coordinates":[-0.48,52.14]}},{"Store Name":"Centre Parcs Woburn Sports Plaza","City":"Bedford","location":{"type":"Point","coordinates":[-0.49,52.03]}},{"Store Name":"WB Membury North","City":"Berkshire","location":{"type":"Point","coordinates":[-1.56,51.48]}},{"Store Name":"WB Membury South","City":"Berkshire","location":{"type":"Point","coordinates":[-1.56,51.48]}},{"Store Name":"Ascot - High Street","City":"Berkshire","location":{"type":"Point","coordinates":[-0.67,51.41]}},{"Store Name":"Beverley-Flemingate Centre","City":"Beverley","location":{"type":"Point","coordinates":[-0.42,53.84]}},{"Store Name":"Bexleyheath - Broadway Shopping Cen","City":"Bexleyheath","location":{"type":"Point","coordinates":[0.15,51.46]}},{"Store Name":"Bickerstaffe - Skelmersdale Road","City":"Bickerstaffe","location":{"type":"Point","coordinates":[-2.83,53.54]}},{"Store Name":"Bideford - Atlantic Village DT","City":"Bideford","location":{"type":"Point","coordinates":[-4.22,51.02]}},{"Store Name":"Birmingham BPH AC Marriot Hotel","City":"Birmingham","location":{"type":"Point","coordinates":[-1.91,52.48]}},{"Store Name":"Birmingham - Bullring - Selfridges","City":"Birmingham","location":{"type":"Point","coordinates":[-1.89,52.48]}},{"Store Name":"Birmingham Cineworld Broad St (181)","City":"Birmingham","location":{"type":"Point","coordinates":[-1.91,52.47]}},{"Store Name":"NEC Atrium","City":"Birmingham","location":{"type":"Point","coordinates":[-1.73,52.45]}},{"Store Name":"Cineworld NEC","City":"Birmingham","location":{"type":"Point","coordinates":[-1.72,52.45]}},{"Store Name":"Birmingham WelcomeBreak Hopwood DT","City":"Birmingham","location":{"type":"Point","coordinates":[-1.95,52.36]}},{"Store Name":"SSP Birmingham New St","City":"Birmingham","location":{"type":"Point","coordinates":[-1.9,52.48]}},{"Store Name":"Birmingham - Colmore Row","City":"Birmingham","location":{"type":"Point","coordinates":[-1.9,52.48]}},{"Store Name":"Birmingham - Bullring - Upper East","City":"Birmingham","location":{"type":"Point","coordinates":[-1.89,52.48]}},{"Store Name":"Birmingham - New Street","City":"Birmingham","location":{"type":"Point","coordinates":[-1.9,52.48]}},{"Store Name":"NEC Piazza","City":"Birmingham","location":{"type":"Point","coordinates":[-1.72,52.45]}},{"Store Name":"WB Hopwood Kiosk","City":"Birmingham","location":{"type":"Point","coordinates":[-1.95,52.36]}},{"Store Name":"Malmaison Birmingham","City":"Birmingham","location":{"type":"Point","coordinates":[-1.91,52.48]}},{"Store Name":"Birmingham - The Fort Shopping Park","City":"Birmingham","location":{"type":"Point","coordinates":[-1.82,52.51]}},{"Store Name":"ICC Broad St","City":"Birmingham","location":{"type":"Point","coordinates":[-1.91,52.48]}},{"Store Name":"Birmingham - Bullring - Middle West","City":"Birmingham","location":{"type":"Point","coordinates":[-1.89,52.48]}},{"Store Name":"WB Hopwood Main Caf\u00e9","City":"Birmingham","location":{"type":"Point","coordinates":[-1.95,52.36]}},{"Store Name":"Birstall Business Pk Bankwood Way","City":"Birstall","location":{"type":"Point","coordinates":[-1.64,53.74]}},{"Store Name":"Bishop Stortford - Jacksons Square","City":"Bishop's Stortford","location":{"type":"Point","coordinates":[0.16,51.87]}},{"Store Name":"WB Birchanger Kiosk","City":"Bishops Storford","location":{"type":"Point","coordinates":[0.19,51.87]}},{"Store Name":"Blackburn - Beehive Business Pk DT","City":"Blackburn","location":{"type":"Point","coordinates":[-2.45,53.73]}},{"Store Name":"Blackpool Hounds Hill Shopping Ctre","City":"Blackpool","location":{"type":"Point","coordinates":[-3.05,53.82]}},{"Store Name":"Village Blackpool","City":"Blackpool","location":{"type":"Point","coordinates":[-3.01,53.81]}},{"Store Name":"Cineworld Boldon","City":"Boldon","location":{"type":"Point","coordinates":[-1.47,54.95]}},{"Store Name":"Bolton - Rivington North","City":"Bolton","location":{"type":"Point","coordinates":[-2.58,53.6]}},{"Store Name":"Bolton Market Hall Unit N","City":"Bolton","location":{"type":"Point","coordinates":[-2.43,53.58]}},{"Store Name":"Bolton - Rivington South","City":"Bolton","location":{"type":"Point","coordinates":[-2.57,53.6]}},{"Store Name":"Bournemouth - Richmond Hill","City":"Bournemouth","location":{"type":"Point","coordinates":[-1.88,50.72]}},{"Store Name":"Westbourne - Poole Road","City":"Bournemouth","location":{"type":"Point","coordinates":[-1.9,50.72]}},{"Store Name":"Bournemouth - Holdenhurst Road","City":"Bournemouth","location":{"type":"Point","coordinates":[-1.86,50.72]}},{"Store Name":"Village Bournemouth","City":"Bournemouth","location":{"type":"Point","coordinates":[-1.82,50.75]}},{"Store Name":"Bournemouth - The Triangle","City":"Bournemouth","location":{"type":"Point","coordinates":[-1.88,50.72]}},{"Store Name":"Bournemouth Aramark Chaseside","City":"Bournemouth","location":{"type":"Point","coordinates":[-1.86,50.73]}},{"Store Name":"Bracknell - Sainsbury's","City":"Bracknell","location":{"type":"Point","coordinates":[-0.74,51.39]}},{"Store Name":"Bradford - Centenary Square","City":"Bradford","location":{"type":"Point","coordinates":[-1.75,53.79]}},{"Store Name":"Bradford - Rooley Lane DT","City":"Bradford","location":{"type":"Point","coordinates":[-1.73,53.77]}},{"Store Name":"Braintree Cineworld Freeport","City":"Braintree","location":{"type":"Point","coordinates":[0.57,51.87]}},{"Store Name":"Braintree - Freeport Outlet Centre","City":"Braintree","location":{"type":"Point","coordinates":[0.57,51.87]}},{"Store Name":"Centre Parcs Elveden Lakeside","City":"Brandon","location":{"type":"Point","coordinates":[0.63,52.45]}},{"Store Name":"Centre Parcs Elveden Forest Centre","City":"Brandon","location":{"type":"Point","coordinates":[0.63,52.45]}},{"Store Name":"Brentwood - High Street","City":"Brentwood","location":{"type":"Point","coordinates":[0.3,51.62]}},{"Store Name":"Bridgend - Waterton Retail Park DT","City":"Bridgend","location":{"type":"Point","coordinates":[-3.54,51.5]}},{"Store Name":"Merry Hill Centre - Upper Mall","City":"Brierley Hill","location":{"type":"Point","coordinates":[-2.11,52.48]}},{"Store Name":"WB Hartshead Moor East DT","City":"Brighouse","location":{"type":"Point","coordinates":[-1.75,53.71]}},{"Store Name":"Brighton - Western Road","City":"Brighton","location":{"type":"Point","coordinates":[-0.15,50.82]}},{"Store Name":"Brighton - North Road","City":"Brighton","location":{"type":"Point","coordinates":[-0.14,50.82]}},{"Store Name":"Brighton - St James Street","City":"Brighton","location":{"type":"Point","coordinates":[-0.14,50.82]}},{"Store Name":"Bristol - Horsefair","City":"Bristol","location":{"type":"Point","coordinates":[-2.59,51.46]}},{"Store Name":"Bristol - Wine Street","City":"Bristol","location":{"type":"Point","coordinates":[-2.59,51.46]}},{"Store Name":"Bristol -Cribs Causeway -Lower Mall","City":"Bristol","location":{"type":"Point","coordinates":[-2.6,51.53]}},{"Store Name":"Bristol WelcomeBreak - Gordano 2ndC","City":"Bristol","location":{"type":"Point","coordinates":[-2.75,51.48]}},{"Store Name":"Bristol - Cabot Circus - Level 1","City":"Bristol","location":{"type":"Point","coordinates":[-2.59,51.46]}},{"Store Name":"Bristol - Clifton Down Shopping Ctr","City":"Bristol","location":{"type":"Point","coordinates":[-2.61,51.46]}},{"Store Name":"SSP Bristol Templemeads","City":"Bristol","location":{"type":"Point","coordinates":[-2.58,51.45]}},{"Store Name":"SSP Bristol Airport","City":"Bristol","location":{"type":"Point","coordinates":[-2.71,51.39]}},{"Store Name":"WB Gordano DT","City":"Bristol","location":{"type":"Point","coordinates":[-2.71,51.48]}},{"Store Name":"Bristol - Temple Quay","City":"Bristol","location":{"type":"Point","coordinates":[-2.58,51.45]}},{"Store Name":"WB Gordano","City":"Bristol","location":{"type":"Point","coordinates":[-2.71,51.48]}},{"Store Name":"DSGI Bristol","City":"Bristol","location":{"type":"Point","coordinates":[-2.6,51.53]}},{"Store Name":"Bromley - Glades Shopping Centre","City":"Bromley","location":{"type":"Point","coordinates":[0.02,51.4]}},{"Store Name":"Bromley High Street","City":"Bromley","location":{"type":"Point","coordinates":[0.02,51.4]}},{"Store Name":"Bromley - Market Square","City":"Bromley","location":{"type":"Point","coordinates":[0.02,51.41]}},{"Store Name":"Broughton - Cineworld","City":"Broughton","location":{"type":"Point","coordinates":[-2.97,53.17]}},{"Store Name":"WB Newport Pagnell North","City":"Buckinghamshire","location":{"type":"Point","coordinates":[-0.75,52.08]}},{"Store Name":"WB Newport Pagnell South","City":"Buckinghamshire","location":{"type":"Point","coordinates":[-0.75,52.08]}},{"Store Name":"Burpham - Sainsbury's","City":"Burpham","location":{"type":"Point","coordinates":[-0.54,51.26]}},{"Store Name":"Village Bury","City":"Bury","location":{"type":"Point","coordinates":[-2.28,53.59]}},{"Store Name":"Bury St Edmunds - Buttermarket","City":"Bury St Edmunds","location":{"type":"Point","coordinates":[0.71,52.25]}},{"Store Name":"Camberley - Sainsbury's","City":"Camberley","location":{"type":"Point","coordinates":[-0.76,51.32]}},{"Store Name":"Camberley - The Atrium","City":"Camberley","location":{"type":"Point","coordinates":[-0.75,51.34]}},{"Store Name":"Cambridge - Christs Lane","City":"Cambridge","location":{"type":"Point","coordinates":[0.12,52.21]}},{"Store Name":"Cambridge - New Market Road","City":"Cambridge","location":{"type":"Point","coordinates":[0.14,52.21]}},{"Store Name":"Cambridge - Regent St","City":"Cambridge","location":{"type":"Point","coordinates":[-0.3,52.55]}},{"Store Name":"Cambridge Grand Arcade St Andew St","City":"Cambridge","location":{"type":"Point","coordinates":[0.12,52.2]}},{"Store Name":"Compass Addenbrooke's","City":"Cambridge","location":{"type":"Point","coordinates":[0.14,52.19]}},{"Store Name":"Cambridge - Fitzroy Street","City":"Cambridge","location":{"type":"Point","coordinates":[0.13,52.21]}},{"Store Name":"Canterbury - St George Street","City":"Canterbury","location":{"type":"Point","coordinates":[1.08,51.28]}},{"Store Name":"Canterbury Kingsmead - Sainsbury's","City":"Canterbury","location":{"type":"Point","coordinates":[1.08,51.28]}},{"Store Name":"Aramark Cardiff Hospital","City":"Cardiff","location":{"type":"Point","coordinates":[-3.19,51.51]}},{"Store Name":"Carlisle - Scotch Street","City":"Carlisle","location":{"type":"Point","coordinates":[-2.94,54.9]}},{"Store Name":"Castleford - Xscape Snozone","City":"Castleford","location":{"type":"Point","coordinates":[-1.34,53.71]}},{"Store Name":"Castleford Designer Outlet Village","City":"Castleford","location":{"type":"Point","coordinates":[-1.34,53.71]}},{"Store Name":"Chatham, The Quay","City":"Chaltham","location":{"type":"Point","coordinates":[0.53,51.4]}},{"Store Name":"SSP Chatham","City":"Chatham","location":{"type":"Point","coordinates":[0.52,51.38]}},{"Store Name":"Village Cheadle","City":"Cheadle","location":{"type":"Point","coordinates":[-2.21,53.39]}},{"Store Name":"Chelmsford High Chelmer SC","City":"Chelmsford","location":{"type":"Point","coordinates":[0.47,51.73]}},{"Store Name":"Chelmsford - High Street (39)","City":"Chelmsford","location":{"type":"Point","coordinates":[0.47,51.73]}},{"Store Name":"Cheltenham - The Promenade","City":"Cheltenham","location":{"type":"Point","coordinates":[-2.08,51.9]}},{"Store Name":"WB Burtonwood","City":"Cheshire","location":{"type":"Point","coordinates":[-2.64,53.42]}},{"Store Name":"Ellesmere Port Coliseum Shopping Pk","City":"Cheshire","location":{"type":"Point","coordinates":[-2.89,53.26]}},{"Store Name":"Chester - Northgate Street","City":"Chester","location":{"type":"Point","coordinates":[-2.89,53.19]}},{"Store Name":"Chester - Deeside DT","City":"Chester","location":{"type":"Point","coordinates":[-3.01,53.23]}},{"Store Name":"Village Chester","City":"Chester","location":{"type":"Point","coordinates":[-3.01,53.81]}},{"Store Name":"Chesterfield - J29A M1 Services DT","City":"Chesterfield","location":{"type":"Point","coordinates":[-1.33,53.24]}},{"Store Name":"Chesterfield - Mansfield Road DT","City":"Chesterfield","location":{"type":"Point","coordinates":[-1.34,53.2]}},{"Store Name":"Chichester - North Street-","City":"Chichester","location":{"type":"Point","coordinates":[-0.78,50.84]}},{"Store Name":"Chiswell Green - North Orbital Rd","City":"Chiswell Green","location":{"type":"Point","coordinates":[-0.36,51.72]}},{"Store Name":"Chiswick Park - Building 5","City":"Chiswick","location":{"type":"Point","coordinates":[-0.28,51.5]}},{"Store Name":"Chorley - M6 Jct 27\/29 Mill Lane","City":"Chorley","location":{"type":"Point","coordinates":[-2.69,53.63]}},{"Store Name":"WB Charnock North","City":"Chorley","location":{"type":"Point","coordinates":[-2.69,53.63]}},{"Store Name":"WB Charnock South","City":"Chorley","location":{"type":"Point","coordinates":[-2.69,53.63]}},{"Store Name":"Shire Hotels Fleece","City":"Cirencester","location":{"type":"Point","coordinates":[-1.97,51.72]}},{"Store Name":"Cleckheaton Centurion Way DT","City":"Cleckheaton","location":{"type":"Point","coordinates":[-1.72,53.74]}},{"Store Name":"Cobham - High Street","City":"Cobham","location":{"type":"Point","coordinates":[-0.41,51.33]}},{"Store Name":"Cockermouth, Oakhurst Services","City":"Cockermouth","location":{"type":"Point","coordinates":[-3.37,54.65]}},{"Store Name":"Colchester - Culver Street West","City":"Colchester","location":{"type":"Point","coordinates":[0.9,51.89]}},{"Store Name":"WB Corley North","City":"Corley","location":{"type":"Point","coordinates":[-1.55,52.47]}},{"Store Name":"Coventry - Arena RP - New Look","City":"Coventry","location":{"type":"Point","coordinates":[-1.49,52.44]}},{"Store Name":"Coventry - Broadgate","City":"Coventry","location":{"type":"Point","coordinates":[-1.51,52.41]}},{"Store Name":"WB Corley South","City":"Coventry","location":{"type":"Point","coordinates":[-1.55,52.47]}},{"Store Name":"WB Corley North DT","City":"Coventry","location":{"type":"Point","coordinates":[-1.55,52.47]}},{"Store Name":"Village Coventry","City":"Coventry","location":{"type":"Point","coordinates":[-1.55,52.4]}},{"Store Name":"Compass Coventry Uni","City":"Coventry","location":{"type":"Point","coordinates":[-1.5,52.4]}},{"Store Name":"SSP Coventry","City":"Coventry","location":{"type":"Point","coordinates":[-1.51,52.4]}},{"Store Name":"Cineworld Crawley","City":"Crawley","location":{"type":"Point","coordinates":[-0.18,51.12]}},{"Store Name":"Crawley - Queens Square","City":"Crawley","location":{"type":"Point","coordinates":[-0.19,51.12]}},{"Store Name":"Crewe - Market Street","City":"Crewe","location":{"type":"Point","coordinates":[-2.44,53.1]}},{"Store Name":"Croydon - Whitgift Centre - Lower","City":"Croydon","location":{"type":"Point","coordinates":[-0.1,51.38]}},{"Store Name":"Croydon-Centrale Shopping Ctr-Upper","City":"Croydon","location":{"type":"Point","coordinates":[-0.1,51.38]}},{"Store Name":"SSP Croydon","City":"Croydon","location":{"type":"Point","coordinates":[-0.09,51.37]}},{"Store Name":"Darlington - Northgate","City":"Darlington","location":{"type":"Point","coordinates":[-1.55,54.53]}},{"Store Name":"Deal, high street","City":"Deal","location":{"type":"Point","coordinates":[1.4,51.22]}},{"Store Name":"Derby Football Club","City":"Derby","location":{"type":"Point","coordinates":[-1.45,52.92]}},{"Store Name":"Derby - Westfield Level 2","City":"Derby","location":{"type":"Point","coordinates":[-1.48,52.92]}},{"Store Name":"Derby - Little Eaton","City":"Derby","location":{"type":"Point","coordinates":[-1.46,52.96]}},{"Store Name":"Monmouth Southbound A40","City":"Dingestow","location":{"type":"Point","coordinates":[-2.81,51.77]}},{"Store Name":"Doncaster - Frenchgate Interchange","City":"Doncaster","location":{"type":"Point","coordinates":[-1.14,53.52]}},{"Store Name":"SSP Doncaster","City":"Doncaster","location":{"type":"Point","coordinates":[-1.14,53.52]}},{"Store Name":"Village Dudley","City":"Dudley","location":{"type":"Point","coordinates":[-2.07,52.51]}},{"Store Name":"Marriott Hotel Durham","City":"Durham","location":{"type":"Point","coordinates":[-1.57,54.78]}},{"Store Name":"Dalton Park Outlet Centre","City":"Durham","location":{"type":"Point","coordinates":[-1.37,54.82]}},{"Store Name":"Durham - Framwellgate Bridge","City":"Durham","location":{"type":"Point","coordinates":[-1.58,54.78]}},{"Store Name":"Consett - Puddlers Corner DT","City":"Durham","location":{"type":"Point","coordinates":[-1.84,54.85]}},{"Store Name":"Bishop Auckland Abraham EP DT","City":"Durham","location":{"type":"Point","coordinates":[-1.69,54.64]}},{"Store Name":"Ealing - The Green","City":"Ealing","location":{"type":"Point","coordinates":[-0.31,51.51]}},{"Store Name":"Ealing - Oak Road","City":"Ealing","location":{"type":"Point","coordinates":[-0.3,51.51]}},{"Store Name":"East Grinstead Sainsburys","City":"East Grinstead","location":{"type":"Point","coordinates":[-0.02,51.13]}},{"Store Name":"Cobra at Eastbourne Arndale Center","City":"Eastbourne","location":{"type":"Point","coordinates":[0.28,50.77]}},{"Store Name":"Birmingham - Edgbaston","City":"Edgbaston","location":{"type":"Point","coordinates":[-1.92,52.47]}},{"Store Name":"Birmingham Uni BHM - Edgbaston","City":"Edgbaston","location":{"type":"Point","coordinates":[-1.93,52.45]}},{"Store Name":"Edgeware - Station Road","City":"Edgeware","location":{"type":"Point","coordinates":[-0.28,51.61]}},{"Store Name":"Edinburgh - Leith Walk","City":"Edinburgh","location":{"type":"Point","coordinates":[-3.18,55.96]}},{"Store Name":"Village Elstree","City":"Elstree","location":{"type":"Point","coordinates":[-0.31,51.64]}},{"Store Name":"Ely, 3A The Cloisters","City":"Ely","location":{"type":"Point","coordinates":[0.27,52.4]}},{"Store Name":"Emsworth -Havant Bypass","City":"Emsworth","location":{"type":"Point","coordinates":[-0.95,50.85]}},{"Store Name":"Epping - High Street","City":"Epping","location":{"type":"Point","coordinates":[0.11,51.7]}},{"Store Name":"Epsom - Ashley Centre","City":"Epsom","location":{"type":"Point","coordinates":[-0.27,51.33]}},{"Store Name":"DSGI Lakeside","City":"Essex","location":{"type":"Point","coordinates":[0.28,51.49]}},{"Store Name":"BishopStort WelcomeBreak-BirchGr DT","City":"Essex","location":{"type":"Point","coordinates":[0.19,51.87]}},{"Store Name":"Exeter - Alphington Road DT","City":"Exeter","location":{"type":"Point","coordinates":[-3.53,50.71]}},{"Store Name":"SSP Exeter","City":"Exeter","location":{"type":"Point","coordinates":[-3.54,50.73]}},{"Store Name":"Exeter - High Street","City":"Exeter","location":{"type":"Point","coordinates":[-3.53,50.72]}},{"Store Name":"Bourne Leisure Devon Cliffs","City":"Exmouth","location":{"type":"Point","coordinates":[-3.4,50.64]}},{"Store Name":"Village Farnborough","City":"Farnborough","location":{"type":"Point","coordinates":[-0.76,51.29]}},{"Store Name":"Farnham - Lion and Lamb Yard","City":"Farnham","location":{"type":"Point","coordinates":[-0.8,51.21]}},{"Store Name":"Farnham Water Lane - Sainsbury's","City":"Farnham","location":{"type":"Point","coordinates":[-0.78,51.22]}},{"Store Name":"Feltham - The Longford Centre","City":"Feltham","location":{"type":"Point","coordinates":[-0.41,51.45]}},{"Store Name":"WB Fleet South 2nd Cafe","City":"Fleet","location":{"type":"Point","coordinates":[-0.86,51.3]}},{"Store Name":"WB Fleet North 2nd Caf\u00e9","City":"Fleet","location":{"type":"Point","coordinates":[-0.86,51.3]}},{"Store Name":"Folkestone - Bouverie Place","City":"Folkestone","location":{"type":"Point","coordinates":[1.18,51.08]}},{"Store Name":"Eurotunnel","City":"Folkestone","location":{"type":"Point","coordinates":[1.11,51.12]}},{"Store Name":"Fraddon - Kingsley Village","City":"Fraddon","location":{"type":"Point","coordinates":[-4.92,50.39]}},{"Store Name":"Newcastle Next - Team Valley RP","City":"Gateshead","location":{"type":"Point","coordinates":[-1.62,54.92]}},{"Store Name":"Gateshead -Metrocentre Retail Pk DT","City":"Gateshead","location":{"type":"Point","coordinates":[-1.67,54.96]}},{"Store Name":"Gateshead - Lower Mall Metrocentre","City":"Gateshead","location":{"type":"Point","coordinates":[-1.67,54.96]}},{"Store Name":"WB Michaelwood North Kiosk","City":"Gloucestershire","location":{"type":"Point","coordinates":[-2.43,51.66]}},{"Store Name":"WB Michaelwood South","City":"Gloucestershire","location":{"type":"Point","coordinates":[-2.43,51.66]}},{"Store Name":"WB Michaelwood South Kiosk","City":"Gloucestershire","location":{"type":"Point","coordinates":[-2.43,51.66]}},{"Store Name":"Dursley WB Michaelwood North","City":"Gloucestershire","location":{"type":"Point","coordinates":[-2.43,51.66]}},{"Store Name":"SSP Grantham","City":"Grantham","location":{"type":"Point","coordinates":[-0.64,52.91]}},{"Store Name":"Great Yarmouth Market Gates SC","City":"Great Yarmouth","location":{"type":"Point","coordinates":[1.73,52.61]}},{"Store Name":"Bluewater - Rose Gallery - Upper","City":"Greenhithe","location":{"type":"Point","coordinates":[0.27,51.44]}},{"Store Name":"Bluewater - Guild Hall - Upper","City":"Greenhithie","location":{"type":"Point","coordinates":[0.27,51.44]}},{"Store Name":"Guildford - White Lion Walk","City":"Guildford","location":{"type":"Point","coordinates":[-0.58,51.24]}},{"Store Name":"Guildford -Wisley North Service Stn","City":"Guildford","location":{"type":"Point","coordinates":[-0.49,51.29]}},{"Store Name":"University of Surrey - Stag Hill","City":"Guildford","location":{"type":"Point","coordinates":[-0.59,51.24]}},{"Store Name":"Guildford - High Street","City":"Guildford","location":{"type":"Point","coordinates":[-0.57,51.24]}},{"Store Name":"Guildford Uni Sports Park","City":"Guildford","location":{"type":"Point","coordinates":[-0.61,51.24]}},{"Store Name":"Hailsham - A22\/A267 North Street","City":"Hailsham","location":{"type":"Point","coordinates":[0.23,50.88]}},{"Store Name":"Hammersmith The Broadway Centre","City":"HAMMERSMITH","location":{"type":"Point","coordinates":[-0.22,51.49]}},{"Store Name":"WB Fleet North","City":"Hampshire","location":{"type":"Point","coordinates":[-0.86,51.3]}},{"Store Name":"WB Fleet North DT","City":"Hampshire","location":{"type":"Point","coordinates":[-0.86,51.3]}},{"Store Name":"WB Fleet South","City":"Hampshire","location":{"type":"Point","coordinates":[-0.86,51.3]}},{"Store Name":"Farnborough - The Meads","City":"Hampshire","location":{"type":"Point","coordinates":[-0.76,51.29]}},{"Store Name":"WB Cobham","City":"Hampsire","location":{"type":"Point","coordinates":[-0.41,51.3]}},{"Store Name":"Hampton - Sainsbury's","City":"Hampton","location":{"type":"Point","coordinates":[-0.38,51.43]}},{"Store Name":"Hanley - The Potteries Shopping Ctr","City":"Hanley, Stoke-on-Trent","location":{"type":"Point","coordinates":[-2.18,53.03]}},{"Store Name":"Fleet - Fleet Road","City":"Hants","location":{"type":"Point","coordinates":[-0.84,51.28]}},{"Store Name":"WB Fleet South DT","City":"Hants","location":{"type":"Point","coordinates":[-0.86,51.3]}},{"Store Name":"Harlow, Harvey Shopping Centre","City":"Harlow","location":{"type":"Point","coordinates":[0.09,51.77]}},{"Store Name":"Harrogate - Victoria Shopping Ctr","City":"Harrogate","location":{"type":"Point","coordinates":[-1.54,53.99]}},{"Store Name":"Harrow - St Georges Centre","City":"Harrow","location":{"type":"Point","coordinates":[-0.34,51.58]}},{"Store Name":"Sheraton Hotel London","City":"Hayes","location":{"type":"Point","coordinates":[-0.42,51.48]}},{"Store Name":"Haywards Heath Sainsburys","City":"Haywards Heath","location":{"type":"Point","coordinates":[-0.11,51.01]}},{"Store Name":"Headington - London Road","City":"Headington","location":{"type":"Point","coordinates":[-1.21,51.76]}},{"Store Name":"Heathrow - Bath Road DT","City":"Heathrow","location":{"type":"Point","coordinates":[-0.42,51.48]}},{"Store Name":"Hemel Hempstead - Riverside SC","City":"Hemel Hempstead","location":{"type":"Point","coordinates":[-0.47,51.75]}},{"Store Name":"Henley - Market Street","City":"Henley-on-Thames","location":{"type":"Point","coordinates":[-0.9,51.54]}},{"Store Name":"Hereford - Commercial Street","City":"Hereford","location":{"type":"Point","coordinates":[-2.71,52.06]}},{"Store Name":"Hertford - Birchley Green","City":"Hertford","location":{"type":"Point","coordinates":[-0.08,51.8]}},{"Store Name":"WB Birchanger","City":"Hertfordshire","location":{"type":"Point","coordinates":[0.19,51.87]}},{"Store Name":"WB South Mimms","City":"Hertforshire","location":{"type":"Point","coordinates":[-0.22,51.69]}},{"Store Name":"Hexham - Bridge End DT","City":"Hexham","location":{"type":"Point","coordinates":[-2.09,54.98]}},{"Store Name":"High Wycombe - Eden Walk SC","City":"High Wycombe","location":{"type":"Point","coordinates":[-0.75,51.63]}},{"Store Name":"Hitchin - Market Place","City":"Hitchin","location":{"type":"Point","coordinates":[-0.28,51.95]}},{"Store Name":"Hornchurch - High Street","City":"Hornchurch","location":{"type":"Point","coordinates":[0.22,51.56]}},{"Store Name":"Bolton - Middlebrook Retail Park","City":"Horwich","location":{"type":"Point","coordinates":[-2.53,53.58]}},{"Store Name":"Hounslow - High Street","City":"Hounslow","location":{"type":"Point","coordinates":[-0.36,51.47]}},{"Store Name":"SSP Heathrow T5C","City":"Hounslow","location":{"type":"Point","coordinates":[-0.48,51.47]}},{"Store Name":"Heathrow Airport T5B AirsideLondon","City":"Houslow","location":{"type":"Point","coordinates":[-0.49,51.47]}},{"Store Name":"Hove - Western Road","City":"Hove","location":{"type":"Point","coordinates":[-0.16,50.83]}},{"Store Name":"Hull - St Stephens Centre","City":"Hull","location":{"type":"Point","coordinates":[-0.33,53.74]}},{"Store Name":"Village Hull","City":"Hull","location":{"type":"Point","coordinates":[-0.41,53.72]}},{"Store Name":"WB Membury 2nd Cafe","City":"Hungerford","location":{"type":"Point","coordinates":[-1.56,51.48]}},{"Store Name":"WB Membury South DT","City":"Hungerford","location":{"type":"Point","coordinates":[-1.56,51.48]}},{"Store Name":"WB Membury North DT","City":"Hungerford","location":{"type":"Point","coordinates":[-1.56,51.48]}},{"Store Name":"Huntingdon - Chequers Court","City":"Huntingdon","location":{"type":"Point","coordinates":[-0.18,52.33]}},{"Store Name":"Village Hyde","City":"Hyde","location":{"type":"Point","coordinates":[-2.09,53.47]}},{"Store Name":"Ilford - High Road","City":"Ilford","location":{"type":"Point","coordinates":[0.07,51.56]}},{"Store Name":"Ipswich Tavern Street","City":"Ipswich","location":{"type":"Point","coordinates":[1.16,52.06]}},{"Store Name":"Ipswich Station SSPEMEA - Burrell R","City":"Ipswich","location":{"type":"Point","coordinates":[1.14,52.05]}},{"Store Name":"Cineworld Ipswich","City":"Ipswich","location":{"type":"Point","coordinates":[1.15,52.05]}},{"Store Name":"Capel St Mary - A12 South","City":"Ipswich","location":{"type":"Point","coordinates":[1.06,52.0]}},{"Store Name":"Douglas, Isle of Man","City":"Isle of Man","location":{"type":"Point","coordinates":[-4.48,54.15]}},{"Store Name":"DeMontford Hotel Kenilworth","City":"Kenilworth","location":{"type":"Point","coordinates":[-1.58,52.34]}},{"Store Name":"WB London Gateway","City":"Kent","location":{"type":"Point","coordinates":[-0.26,51.63]}},{"Store Name":"Kettering - Cherry Hall Rd DT","City":"Kettering","location":{"type":"Point","coordinates":[-0.73,52.43]}},{"Store Name":"Kidderminster - Weavers Wharf","City":"Kidderminster","location":{"type":"Point","coordinates":[-2.25,52.39]}},{"Store Name":"Kilburn - High Road","City":"KILBURN","location":{"type":"Point","coordinates":[-0.19,51.54]}},{"Store Name":"Kingston-Bentall Centre","City":"Kingston Upon Thames","location":{"type":"Point","coordinates":[-0.3,51.41]}},{"Store Name":"WB Abington","City":"Lanarkshire","location":{"type":"Point","coordinates":[-3.69,55.51]}},{"Store Name":"Preston - Ribby Hall Village","City":"Lancashire","location":{"type":"Point","coordinates":[-2.9,53.78]}},{"Store Name":"Lancaster - Market Street","City":"Lancaster","location":{"type":"Point","coordinates":[-2.8,54.05]}},{"Store Name":"Leamington Spa - Sainsburys","City":"Leamington Spa","location":{"type":"Point","coordinates":[-1.55,52.28]}},{"Store Name":"Leamington Spa - Warwick Street","City":"Leamington Spa","location":{"type":"Point","coordinates":[-1.53,52.29]}},{"Store Name":"Village Leeds Otley Rd","City":"Leeds","location":{"type":"Point","coordinates":[-1.59,53.84]}},{"Store Name":"Leeds - Briggate","City":"Leeds","location":{"type":"Point","coordinates":[-1.54,53.8]}},{"Store Name":"Leeds - Street Lane","City":"Leeds","location":{"type":"Point","coordinates":[-1.5,53.84]}},{"Store Name":"Leeds - The Light-","City":"Leeds","location":{"type":"Point","coordinates":[-1.55,53.8]}},{"Store Name":"Village Leeds Capitol Blvd","City":"Leeds","location":{"type":"Point","coordinates":[-1.59,53.73]}},{"Store Name":"Leeds - Station Bridgelink","City":"Leeds","location":{"type":"Point","coordinates":[-1.55,53.79]}},{"Store Name":"Leeds - Station, North Concourse","City":"Leeds","location":{"type":"Point","coordinates":[-1.55,53.8]}},{"Store Name":"Leeds - West One Wellington Street","City":"Leeds","location":{"type":"Point","coordinates":[-1.56,53.8]}},{"Store Name":"Leeds - Albion Street","City":"Leeds","location":{"type":"Point","coordinates":[-1.54,53.8]}},{"Store Name":"Leeds - Bridgewater Place","City":"Leeds","location":{"type":"Point","coordinates":[-1.55,53.79]}},{"Store Name":"Leeds - City Point","City":"Leeds City Point","location":{"type":"Point","coordinates":[-1.55,53.8]}},{"Store Name":"Leicester - Thurmaston Retail Park","City":"Leicester","location":{"type":"Point","coordinates":[-1.09,52.68]}},{"Store Name":"Leicester Uni","City":"Leicester","location":{"type":"Point","coordinates":[-1.13,52.62]}},{"Store Name":"Leicester - Highcross Shopping Ctr","City":"Leicester","location":{"type":"Point","coordinates":[-1.14,52.64]}},{"Store Name":"Leicester - Upperton Road","City":"Leicester","location":{"type":"Point","coordinates":[-1.15,52.63]}},{"Store Name":"WB Leicester FE North DT","City":"Leicester","location":{"type":"Point","coordinates":[-1.21,52.62]}},{"Store Name":"WB Leicester FE North","City":"Leicester","location":{"type":"Point","coordinates":[-1.21,52.62]}},{"Store Name":"WB Leicester FE South","City":"Leicester","location":{"type":"Point","coordinates":[-1.21,52.62]}},{"Store Name":"Lincoln - High Street-","City":"Lincoln","location":{"type":"Point","coordinates":[-0.54,53.23]}},{"Store Name":"Lincoln - Tritton Retail Park","City":"Lincoln","location":{"type":"Point","coordinates":[-0.55,53.22]}},{"Store Name":"Holiday Inn Lincoln","City":"Lincoln","location":{"type":"Point","coordinates":[-0.55,53.23]}},{"Store Name":"Liphook - A3 Northbound DT","City":"Liphook","location":{"type":"Point","coordinates":[-0.82,51.08]}},{"Store Name":"Old Thorns Hotel","City":"Liphook","location":{"type":"Point","coordinates":[-0.83,51.08]}},{"Store Name":"Liverpool LJMU - Byrom St","City":"Liverpool","location":{"type":"Point","coordinates":[-2.98,53.41]}},{"Store Name":"Liverpool - Speke Boulevard DT","City":"Liverpool","location":{"type":"Point","coordinates":[-2.85,53.35]}},{"Store Name":"SSP Liverpool Airside","City":"Liverpool","location":{"type":"Point","coordinates":[-2.86,53.34]}},{"Store Name":"Liverpool Uni Merseyside","City":"Liverpool","location":{"type":"Point","coordinates":[-2.96,53.41]}},{"Store Name":"Liverpool - Sugarbrook DT","City":"Liverpool","location":{"type":"Point","coordinates":[-2.92,53.46]}},{"Store Name":"SSP Liverpool  Landside","City":"Liverpool","location":{"type":"Point","coordinates":[-2.86,53.34]}},{"Store Name":"Liverpool - Old Hall Street","City":"Liverpool","location":{"type":"Point","coordinates":[-2.99,53.41]}},{"Store Name":"Liverpool - Prescot Street","City":"Liverpool","location":{"type":"Point","coordinates":[-2.97,53.41]}},{"Store Name":"Liverpool - Paradise Street","City":"Liverpool","location":{"type":"Point","coordinates":[-2.99,53.4]}},{"Store Name":"Liverpool One - Thomas Steers Way","City":"Liverpool","location":{"type":"Point","coordinates":[-2.99,53.4]}},{"Store Name":"Liverpool LJMU - Clarence St","City":"Liverpool","location":{"type":"Point","coordinates":[-2.97,53.41]}},{"Store Name":"Liverpool, Myrtle Street","City":"Liverpool","location":{"type":"Point","coordinates":[-2.97,53.4]}},{"Store Name":"Clapham - St. John's Road","City":"London","location":{"type":"Point","coordinates":[-0.17,51.46]}},{"Store Name":"Brixton Station","City":"London","location":{"type":"Point","coordinates":[-0.11,51.46]}},{"Store Name":"Stansted Airport DT","City":"London","location":{"type":"Point","coordinates":[0.25,51.88]}},{"Store Name":"Juxon House - St. Pauls Church Yard","City":"London","location":{"type":"Point","coordinates":[-0.1,51.51]}},{"Store Name":"Pentonville Road","City":"London","location":{"type":"Point","coordinates":[-0.12,51.53]}},{"Store Name":"Earls Court Road","City":"London","location":{"type":"Point","coordinates":[-0.19,51.49]}},{"Store Name":"Notting Hill - Portobello Road","City":"London","location":{"type":"Point","coordinates":[-0.21,51.52]}},{"Store Name":"Great Portland Street","City":"London","location":{"type":"Point","coordinates":[-0.14,51.52]}},{"Store Name":"Canary Wharf - Canada Square","City":"London","location":{"type":"Point","coordinates":[-0.02,51.5]}},{"Store Name":"Balham - Bedford Hill","City":"London","location":{"type":"Point","coordinates":[-0.15,51.44]}},{"Store Name":"Earls Court - Old Brompton Road","City":"London","location":{"type":"Point","coordinates":[-0.19,51.49]}},{"Store Name":"Walbrook","City":"London","location":{"type":"Point","coordinates":[-0.09,51.51]}},{"Store Name":"Wigmore Street","City":"London","location":{"type":"Point","coordinates":[-0.15,51.52]}},{"Store Name":"Tooting Broadway, Mitcham Road","City":"London","location":{"type":"Point","coordinates":[-0.17,51.43]}},{"Store Name":"Islington - High Street","City":"London","location":{"type":"Point","coordinates":[-0.11,51.53]}},{"Store Name":"Victoria - Buckingham Palace Road","City":"London","location":{"type":"Point","coordinates":[-0.15,51.49]}},{"Store Name":"Wood Lane Underground Station-","City":"London","location":{"type":"Point","coordinates":[-0.22,51.51]}},{"Store Name":"Ealing Broadway Haven Green","City":"London","location":{"type":"Point","coordinates":[-0.3,51.51]}},{"Store Name":"Moorgate","City":"London","location":{"type":"Point","coordinates":[-0.09,51.52]}},{"Store Name":"Earls Court - Sainsbury's","City":"London","location":{"type":"Point","coordinates":[-0.19,51.5]}},{"Store Name":"London - Westfield - Upper Mall","City":"London","location":{"type":"Point","coordinates":[-0.22,51.51]}},{"Store Name":"Dulwich - Sainsbury's","City":"London","location":{"type":"Point","coordinates":[-0.08,51.46]}},{"Store Name":"Victoria-Palmer Street","City":"London","location":{"type":"Point","coordinates":[-0.14,51.5]}},{"Store Name":"Kensington - Gloucester Rd","City":"London","location":{"type":"Point","coordinates":[-0.18,51.5]}},{"Store Name":"Fulham Broadway Station","City":"London","location":{"type":"Point","coordinates":[-0.19,51.48]}},{"Store Name":"Southampton Row","City":"London","location":{"type":"Point","coordinates":[-0.12,51.52]}},{"Store Name":"Muswell Hill - Broadway","City":"London","location":{"type":"Point","coordinates":[-0.14,51.59]}},{"Store Name":"The Lion, 1 Junction","City":"London","location":{"type":"Point","coordinates":[-0.13,51.57]}},{"Store Name":"Clapham High Street","City":"London","location":{"type":"Point","coordinates":[-0.14,51.46]}},{"Store Name":"Greenwich - The O2","City":"London","location":{"type":"Point","coordinates":[0.0,51.5]}},{"Store Name":"Wardour Street\/Hollen Street","City":"London","location":{"type":"Point","coordinates":[-0.14,51.52]}},{"Store Name":"St Pancras International Station","City":"London","location":{"type":"Point","coordinates":[-0.13,51.53]}},{"Store Name":"DSGI Fulham","City":"London","location":{"type":"Point","coordinates":[-0.19,51.47]}},{"Store Name":"Notting Hill Gate","City":"London","location":{"type":"Point","coordinates":[-0.2,51.51]}},{"Store Name":"Shepherds Bush - Uxbridge Road","City":"London","location":{"type":"Point","coordinates":[-0.22,51.5]}},{"Store Name":"Grosvenor Street","City":"London","location":{"type":"Point","coordinates":[-0.15,51.51]}},{"Store Name":"Finsbury Square","City":"London","location":{"type":"Point","coordinates":[-0.09,51.52]}},{"Store Name":"Carnaby Street","City":"London","location":{"type":"Point","coordinates":[-0.14,51.51]}},{"Store Name":"Cowcross Place","City":"London","location":{"type":"Point","coordinates":[-0.1,51.52]}},{"Store Name":"Byward Street","City":"London","location":{"type":"Point","coordinates":[-0.08,51.51]}},{"Store Name":"Great Russell Street","City":"London","location":{"type":"Point","coordinates":[-0.13,51.52]}},{"Store Name":"SSP Liverpool St Broadgate Link","City":"London","location":{"type":"Point","coordinates":[-0.08,51.52]}},{"Store Name":"White City - Vivacity","City":"London","location":{"type":"Point","coordinates":[-0.23,51.51]}},{"Store Name":"Kensington High Street","City":"London","location":{"type":"Point","coordinates":[-0.19,51.5]}},{"Store Name":"Hendon - Sainsbury's","City":"London","location":{"type":"Point","coordinates":[-0.24,51.58]}},{"Store Name":"Winchmore Hill - Sainsbury's","City":"London","location":{"type":"Point","coordinates":[-0.1,51.63]}},{"Store Name":"Leadenhall Street","City":"London","location":{"type":"Point","coordinates":[-0.08,51.51]}},{"Store Name":"High Holborn","City":"London","location":{"type":"Point","coordinates":[-0.12,51.52]}},{"Store Name":"Fox Excel","City":"London","location":{"type":"Point","coordinates":[0.03,51.51]}},{"Store Name":"St Martins Lane","City":"London","location":{"type":"Point","coordinates":[-0.13,51.51]}},{"Store Name":"Baker Street (58)","City":"London","location":{"type":"Point","coordinates":[-0.16,51.52]}},{"Store Name":"Upper St Martins Lane","City":"London","location":{"type":"Point","coordinates":[-0.13,51.51]}},{"Store Name":"Fulham - Chels&West Hospital","City":"London","location":{"type":"Point","coordinates":[-0.18,51.49]}},{"Store Name":"Holland Park Avenue","City":"London","location":{"type":"Point","coordinates":[-0.21,51.51]}},{"Store Name":"Knightsbridge Underground","City":"London","location":{"type":"Point","coordinates":[-0.16,51.5]}},{"Store Name":"Hampstead - South End Road","City":"London","location":{"type":"Point","coordinates":[-0.17,51.55]}},{"Store Name":"Palmers Green - Green Lanes","City":"London","location":{"type":"Point","coordinates":[-0.11,51.62]}},{"Store Name":"Paddington Station - Mezzanine","City":"London","location":{"type":"Point","coordinates":[-0.18,51.52]}},{"Store Name":"Brunswick Centre","City":"London","location":{"type":"Point","coordinates":[-0.12,51.52]}},{"Store Name":"SSP Liverpoll St Bishopsgate","City":"London","location":{"type":"Point","coordinates":[-0.08,51.52]}},{"Store Name":"Euston Tower","City":"London","location":{"type":"Point","coordinates":[-0.14,51.53]}},{"Store Name":"Surrey Quays Shopping Ctr - Ground","City":"London","location":{"type":"Point","coordinates":[-0.05,51.49]}},{"Store Name":"Wardour Street\/Brewer Street","City":"London","location":{"type":"Point","coordinates":[-0.13,51.51]}},{"Store Name":"Cavendish Square","City":"London","location":{"type":"Point","coordinates":[-0.14,51.52]}},{"Store Name":"Golders Green","City":"London","location":{"type":"Point","coordinates":[-0.2,51.57]}},{"Store Name":"North Finchley - High Road","City":"London","location":{"type":"Point","coordinates":[-0.18,51.62]}},{"Store Name":"Vauxhall - Lambeth Road","City":"London","location":{"type":"Point","coordinates":[-0.12,51.49]}},{"Store Name":"Cheapside","City":"London","location":{"type":"Point","coordinates":[-0.1,51.51]}},{"Store Name":"Embankment","City":"London","location":{"type":"Point","coordinates":[-0.12,51.51]}},{"Store Name":"Hampstead - West End Lane","City":"London","location":{"type":"Point","coordinates":[-0.19,51.55]}},{"Store Name":"Villiers Street","City":"London","location":{"type":"Point","coordinates":[-0.12,51.51]}},{"Store Name":"Bayswater - Whiteleys","City":"London","location":{"type":"Point","coordinates":[-0.19,51.51]}},{"Store Name":"Victoria Coach Station","City":"London","location":{"type":"Point","coordinates":[-0.15,51.49]}},{"Store Name":"Langham Place W1","City":"London","location":{"type":"Point","coordinates":[-0.14,51.52]}},{"Store Name":"Clapham - Northcote Road","City":"London","location":{"type":"Point","coordinates":[-0.17,51.46]}},{"Store Name":"Minories","City":"London","location":{"type":"Point","coordinates":[-0.08,51.51]}},{"Store Name":"SSP Waterloo Main Store","City":"London","location":{"type":"Point","coordinates":[-0.11,51.5]}},{"Store Name":"Docklands - St Katharine's Dock","City":"London","location":{"type":"Point","coordinates":[-0.07,51.51]}},{"Store Name":"SSP King's Cross Kiosk","City":"London","location":{"type":"Point","coordinates":[-0.12,51.53]}},{"Store Name":"London Cineworld Fulham Road","City":"London","location":{"type":"Point","coordinates":[-0.18,51.49]}},{"Store Name":"West One Centre","City":"London","location":{"type":"Point","coordinates":[-0.15,51.51]}},{"Store Name":"Euston Road","City":"London","location":{"type":"Point","coordinates":[-0.13,51.53]}},{"Store Name":"Whitechapel Road","City":"London","location":{"type":"Point","coordinates":[-0.07,51.52]}},{"Store Name":"Maida Vale - Randolph Ave","City":"London","location":{"type":"Point","coordinates":[-0.19,51.53]}},{"Store Name":"Brushfield Street","City":"London","location":{"type":"Point","coordinates":[-0.08,51.52]}},{"Store Name":"Stratford - Westfield Lower Ground","City":"London","location":{"type":"Point","coordinates":[-0.01,51.54]}},{"Store Name":"Raynes Park","City":"London","location":{"type":"Point","coordinates":[-0.23,51.41]}},{"Store Name":"Southfields - Replingham Road","City":"London","location":{"type":"Point","coordinates":[-0.21,51.44]}},{"Store Name":"Pembridge Road","City":"London","location":{"type":"Point","coordinates":[-0.2,51.51]}},{"Store Name":"Uxbridge Road, Ealing Common","City":"London","location":{"type":"Point","coordinates":[-0.29,51.51]}},{"Store Name":"Belsize Park - Englands Lane","City":"London","location":{"type":"Point","coordinates":[-0.16,51.55]}},{"Store Name":"Stratford - Westfield - Kiosk","City":"London","location":{"type":"Point","coordinates":[-0.01,51.54]}},{"Store Name":"Sun Street","City":"London","location":{"type":"Point","coordinates":[-0.08,51.52]}},{"Store Name":"Tottenham Court Road\/Tottenham St","City":"London","location":{"type":"Point","coordinates":[-0.13,51.52]}},{"Store Name":"Drapers Gardens","City":"London","location":{"type":"Point","coordinates":[-0.09,51.52]}},{"Store Name":"City Thameslink - Fleet Place","City":"London","location":{"type":"Point","coordinates":[-0.1,51.52]}},{"Store Name":"SSP Waterloo East","City":"London","location":{"type":"Point","coordinates":[-0.11,51.5]}},{"Store Name":"Victoria Street & Horwick Place","City":"London","location":{"type":"Point","coordinates":[-0.14,51.5]}},{"Store Name":"Vigo Street","City":"London","location":{"type":"Point","coordinates":[-0.14,51.51]}},{"Store Name":"Colliers Wood - Tandam Centre","City":"London","location":{"type":"Point","coordinates":[-0.18,51.41]}},{"Store Name":"Kew - Station Parade","City":"London","location":{"type":"Point","coordinates":[-0.29,51.48]}},{"Store Name":"Great Marlborough St","City":"LONDON","location":{"type":"Point","coordinates":[-0.14,51.51]}},{"Store Name":"Hammersmith Broadway West","City":"London","location":{"type":"Point","coordinates":[-0.22,51.49]}},{"Store Name":"Westminster - Broadway","City":"London","location":{"type":"Point","coordinates":[-0.13,51.5]}},{"Store Name":"Cineworld Enfield","City":"London","location":{"type":"Point","coordinates":[-0.07,51.63]}},{"Store Name":"South Kensington - Old Brompton Rd","City":"London","location":{"type":"Point","coordinates":[-0.17,51.49]}},{"Store Name":"Hammersmith Road","City":"London","location":{"type":"Point","coordinates":[-0.22,51.49]}},{"Store Name":"Berkeley Street\/Berkeley Square","City":"London","location":{"type":"Point","coordinates":[-0.14,51.51]}},{"Store Name":"Old Street - City Road","City":"London","location":{"type":"Point","coordinates":[-0.09,51.53]}},{"Store Name":"Chiswick - High Road\/Belmont Road","City":"London","location":{"type":"Point","coordinates":[-0.26,51.49]}},{"Store Name":"London - Westfield - Lower Mall","City":"London","location":{"type":"Point","coordinates":[-0.22,51.51]}},{"Store Name":"Princes Street W1","City":"London","location":{"type":"Point","coordinates":[-0.14,51.51]}},{"Store Name":"Fulham Road","City":"London","location":{"type":"Point","coordinates":[-0.21,51.48]}},{"Store Name":"Parsons Green","City":"London","location":{"type":"Point","coordinates":[-0.2,51.47]}},{"Store Name":"Borough High Street\/Borough Station","City":"London","location":{"type":"Point","coordinates":[-0.09,51.5]}},{"Store Name":"Tottenham Court Road\/Capper St","City":"London","location":{"type":"Point","coordinates":[-0.14,51.52]}},{"Store Name":"Marble Arch","City":"London","location":{"type":"Point","coordinates":[-0.16,51.51]}},{"Store Name":"SSP Euston","City":"London","location":{"type":"Point","coordinates":[-0.13,51.53]}},{"Store Name":"Belgravia -  Pimlico Road","City":"London","location":{"type":"Point","coordinates":[-0.15,51.49]}},{"Store Name":"Berkeley Street","City":"London","location":{"type":"Point","coordinates":[-0.14,51.51]}},{"Store Name":"Westbourne Grove","City":"London","location":{"type":"Point","coordinates":[-0.19,51.52]}},{"Store Name":"SSP Wimbledon","City":"London","location":{"type":"Point","coordinates":[-0.21,51.42]}},{"Store Name":"Paddington Central - Sheldon Square","City":"London","location":{"type":"Point","coordinates":[-0.18,51.52]}},{"Store Name":"Baker Street\/Porter Street","City":"London","location":{"type":"Point","coordinates":[-0.16,51.52]}},{"Store Name":"Chelsea - Kings Road\/Shawfield St","City":"London","location":{"type":"Point","coordinates":[-0.17,51.49]}},{"Store Name":"Strand","City":"London","location":{"type":"Point","coordinates":[-0.13,51.51]}},{"Store Name":"Wandsworth Bridge Road","City":"London","location":{"type":"Point","coordinates":[-0.19,51.47]}},{"Store Name":"Islington - Upper Street","City":"London","location":{"type":"Point","coordinates":[-0.11,51.53]}},{"Store Name":"Swiss Cottage - 02 Centre","City":"London","location":{"type":"Point","coordinates":[-0.18,51.55]}},{"Store Name":"Strand\/Savoy Street","City":"London","location":{"type":"Point","coordinates":[-0.12,51.51]}},{"Store Name":"Aramark Canary Wharf","City":"London","location":{"type":"Point","coordinates":[-0.01,51.51]}},{"Store Name":"Harewood Place","City":"London","location":{"type":"Point","coordinates":[-0.14,51.51]}},{"Store Name":"South Bank - County Hall","City":"London","location":{"type":"Point","coordinates":[-0.12,51.5]}},{"Store Name":"Clapham - Abbeville Road","City":"London","location":{"type":"Point","coordinates":[-0.14,51.45]}},{"Store Name":"Waterloo Station Lower Entrance","City":"London","location":{"type":"Point","coordinates":[-0.11,51.5]}},{"Store Name":"SSP Liverpool St Kiosk","City":"London","location":{"type":"Point","coordinates":[-0.08,51.52]}},{"Store Name":"Tower Thistle Hotel London","City":"London","location":{"type":"Point","coordinates":[-0.07,51.51]}},{"Store Name":"Sainsbury Nine Elms","City":"London","location":{"type":"Point","coordinates":[-0.13,51.48]}},{"Store Name":"Canary Wharf - South Collonade\/DLR","City":"London","location":{"type":"Point","coordinates":[-0.02,51.5]}},{"Store Name":"Brent Cross Shopping Ctr - Lower","City":"London","location":{"type":"Point","coordinates":[-0.22,51.58]}},{"Store Name":"London - Greenwich Shopping Park","City":"London","location":{"type":"Point","coordinates":[0.02,51.49]}},{"Store Name":"Queens Park","City":"London","location":{"type":"Point","coordinates":[-0.21,51.54]}},{"Store Name":"James Street","City":"London","location":{"type":"Point","coordinates":[-0.15,51.51]}},{"Store Name":"Kingsway","City":"London","location":{"type":"Point","coordinates":[-0.12,51.51]}},{"Store Name":"West Wickham - High Street","City":"LONDON","location":{"type":"Point","coordinates":[-0.02,51.38]}},{"Store Name":"Highbury Corner","City":"London","location":{"type":"Point","coordinates":[-0.1,51.55]}},{"Store Name":"Greenwich - Cutty Sark","City":"London","location":{"type":"Point","coordinates":[-0.01,51.48]}},{"Store Name":"Camden - Parkway","City":"London","location":{"type":"Point","coordinates":[-0.14,51.54]}},{"Store Name":"Edgware Road","City":"London","location":{"type":"Point","coordinates":[-0.17,51.52]}},{"Store Name":"High Holborn\/Chancery Lane","City":"London","location":{"type":"Point","coordinates":[-0.11,51.52]}},{"Store Name":"Brompton Road","City":"London","location":{"type":"Point","coordinates":[-0.16,51.5]}},{"Store Name":"Gracechurch Street","City":"London","location":{"type":"Point","coordinates":[-0.09,51.51]}},{"Store Name":"Tower Place East - Lower Thames St","City":"London","location":{"type":"Point","coordinates":[-0.08,51.51]}},{"Store Name":"New Bridge Street","City":"London","location":{"type":"Point","coordinates":[-0.1,51.51]}},{"Store Name":"Chelsea - Sloane Avenue","City":"London","location":{"type":"Point","coordinates":[-0.17,51.49]}},{"Store Name":"St. John's Wood - High Street","City":"London","location":{"type":"Point","coordinates":[-0.17,51.53]}},{"Store Name":"Westminster - Horseferry Road","City":"London","location":{"type":"Point","coordinates":[-0.13,51.49]}},{"Store Name":"Bayswater - Queensway","City":"London","location":{"type":"Point","coordinates":[-0.19,51.51]}},{"Store Name":"Fleet Street","City":"London","location":{"type":"Point","coordinates":[-0.11,51.51]}},{"Store Name":"SSP London Victoria Platform 2","City":"London","location":{"type":"Point","coordinates":[-2.87,55.74]}},{"Store Name":"Enfield - Church St","City":"London","location":{"type":"Point","coordinates":[-0.08,51.65]}},{"Store Name":"Belsize Park - Haverstock Hill","City":"London","location":{"type":"Point","coordinates":[-0.16,51.55]}},{"Store Name":"Kingsway\/Great Queen Street","City":"London","location":{"type":"Point","coordinates":[-0.12,51.52]}},{"Store Name":"SSP King's Cross Main Concourse","City":"London","location":{"type":"Point","coordinates":[-0.12,51.53]}},{"Store Name":"SSP London Victoria Main Store","City":"London","location":{"type":"Point","coordinates":[-0.14,51.5]}},{"Store Name":"Crouch End - Broadway","City":"London","location":{"type":"Point","coordinates":[-0.12,51.58]}},{"Store Name":"King William Street","City":"London","location":{"type":"Point","coordinates":[-0.09,51.51]}},{"Store Name":"Wimbledon Hill Road","City":"London","location":{"type":"Point","coordinates":[-0.21,51.42]}},{"Store Name":"Camden - Lock Keeper's Cottage","City":"London","location":{"type":"Point","coordinates":[-0.15,51.54]}},{"Store Name":"Paternoster Sq","City":"London","location":{"type":"Point","coordinates":[-0.1,51.51]}},{"Store Name":"Beckenham - High Street","City":"London","location":{"type":"Point","coordinates":[-0.03,51.41]}},{"Store Name":"Borough High Street","City":"London","location":{"type":"Point","coordinates":[-0.09,51.5]}},{"Store Name":"Hammersmith - King Street","City":"London","location":{"type":"Point","coordinates":[-0.23,51.49]}},{"Store Name":"Kensington - Gloucester Rd Station","City":"London","location":{"type":"Point","coordinates":[-0.18,51.49]}},{"Store Name":"Baker Street Underground Station","City":"London","location":{"type":"Point","coordinates":[-0.16,51.52]}},{"Store Name":"New Oxford Street","City":"London","location":{"type":"Point","coordinates":[-0.13,51.52]}},{"Store Name":"Lion Plaza-Old Broad Street","City":"London","location":{"type":"Point","coordinates":[-0.09,51.51]}},{"Store Name":"London Bridge - Hays Galleria","City":"London","location":{"type":"Point","coordinates":[-0.08,51.51]}},{"Store Name":"Kensington High Street\/Allen Street","City":"London","location":{"type":"Point","coordinates":[-0.2,51.5]}},{"Store Name":"Mile End Road","City":"London","location":{"type":"Point","coordinates":[-0.04,51.52]}},{"Store Name":"Clerkenwell - Goswell Road","City":"London","location":{"type":"Point","coordinates":[-0.1,51.52]}},{"Store Name":"Borehamwood - Shopping Park","City":"London","location":{"type":"Point","coordinates":[-0.28,51.66]}},{"Store Name":"South Bank - Globe","City":"London","location":{"type":"Point","coordinates":[-0.1,51.51]}},{"Store Name":"Kingston - Clarence St","City":"London","location":{"type":"Point","coordinates":[-0.3,51.41]}},{"Store Name":"Canary Wharf - Churchill Place","City":"London","location":{"type":"Point","coordinates":[-0.01,51.5]}},{"Store Name":"Charing Cross Road","City":"London","location":{"type":"Point","coordinates":[-0.13,51.52]}},{"Store Name":"Victoria St\/Abbey Orchard St","City":"London","location":{"type":"Point","coordinates":[-0.13,51.5]}},{"Store Name":"Canary Wharf - Jubilee Place","City":"London","location":{"type":"Point","coordinates":[-0.02,51.5]}},{"Store Name":"Finsbury Park - Wells Terrace","City":"London","location":{"type":"Point","coordinates":[-0.11,51.56]}},{"Store Name":"Clapham - Old Town","City":"London","location":{"type":"Point","coordinates":[-0.14,51.46]}},{"Store Name":"South Bank - Hopton Street","City":"London","location":{"type":"Point","coordinates":[-0.1,51.51]}},{"Store Name":"Lynton House, Tavistock Square","City":"London","location":{"type":"Point","coordinates":[-0.13,51.53]}},{"Store Name":"Oxford Street - Selfridges","City":"London","location":{"type":"Point","coordinates":[-0.15,51.51]}},{"Store Name":"Conduit Street","City":"London","location":{"type":"Point","coordinates":[-0.14,51.51]}},{"Store Name":"Chiswick - High Road\/Fisher's Lane","City":"London","location":{"type":"Point","coordinates":[-0.26,51.49]}},{"Store Name":"Covent Garden - Russell St","City":"London","location":{"type":"Point","coordinates":[-0.12,51.51]}},{"Store Name":"London Bridge-Shard Arcade","City":"London","location":{"type":"Point","coordinates":[-0.09,51.51]}},{"Store Name":"London Colney - New Look","City":"London Colney","location":{"type":"Point","coordinates":[-0.28,51.72]}},{"Store Name":"Loughborough Cineworld BaxterGate","City":"Loughborough","location":{"type":"Point","coordinates":[-1.2,52.77]}},{"Store Name":"Loughton - High Road","City":"Loughton","location":{"type":"Point","coordinates":[0.06,51.65]}},{"Store Name":"Lowestoft, London Road North","City":"Lowestoft","location":{"type":"Point","coordinates":[1.75,52.48]}},{"Store Name":"SSP Luton Landside","City":"Luton","location":{"type":"Point","coordinates":[-0.38,51.88]}},{"Store Name":"Luton Travel Centre","City":"Luton","location":{"type":"Point","coordinates":[-0.41,51.88]}},{"Store Name":"SSP Luton Airside","City":"Luton","location":{"type":"Point","coordinates":[-0.38,51.88]}},{"Store Name":"Maidenhead - Nicholson Centre","City":"Maidenhead","location":{"type":"Point","coordinates":[-0.72,51.52]}},{"Store Name":"Maidstone - King Street","City":"Maidstone","location":{"type":"Point","coordinates":[0.52,51.27]}},{"Store Name":"Village Maidstone","City":"Maidstone","location":{"type":"Point","coordinates":[0.51,51.3]}},{"Store Name":"Manchester - City Labs Nelson St","City":"Manchester","location":{"type":"Point","coordinates":[-2.23,53.46]}},{"Store Name":"SSP Manchester T1","City":"Manchester","location":{"type":"Point","coordinates":[-2.28,53.37]}},{"Store Name":"Manchester, Unit 7B, First Street","City":"Manchester","location":{"type":"Point","coordinates":[-2.25,53.47]}},{"Store Name":"Manchester - Piccadilly Station","City":"Manchester","location":{"type":"Point","coordinates":[-2.23,53.48]}},{"Store Name":"Manchester Arndale - Lower Ex Court","City":"Manchester","location":{"type":"Point","coordinates":[-2.24,53.48]}},{"Store Name":"Manchester Piccadilly Place","City":"Manchester","location":{"type":"Point","coordinates":[-2.24,53.48]}},{"Store Name":"Manchester Uni North Campus","City":"Manchester","location":{"type":"Point","coordinates":[-2.23,53.47]}},{"Store Name":"Manchester - Quay St","City":"Manchester","location":{"type":"Point","coordinates":[-2.25,53.48]}},{"Store Name":"Manchester - Market Street","City":"Manchester","location":{"type":"Point","coordinates":[-2.24,53.48]}},{"Store Name":"Manchester - St. Ann's Square","City":"Manchester","location":{"type":"Point","coordinates":[-2.25,53.48]}},{"Store Name":"Malmaison Manchester","City":"Manchester","location":{"type":"Point","coordinates":[-2.24,53.48]}},{"Store Name":"Manchester - Princess Street","City":"Manchester","location":{"type":"Point","coordinates":[-2.24,53.48]}},{"Store Name":"Manchester Trafford - Upper Peel Av","City":"Manchester","location":{"type":"Point","coordinates":[-2.35,53.47]}},{"Store Name":"Manchester - City Tower","City":"Manchester","location":{"type":"Point","coordinates":[-2.24,53.48]}},{"Store Name":"SSP Manchester Victoria","City":"Manchester","location":{"type":"Point","coordinates":[-2.24,53.49]}},{"Store Name":"Manchester - Deansgate","City":"Manchester","location":{"type":"Point","coordinates":[-2.25,53.48]}},{"Store Name":"Manchester - Barton Dock Drive Thru","City":"Manchester","location":{"type":"Point","coordinates":[-2.34,53.47]}},{"Store Name":"Manchester Trafford-Lower Regent Cr","City":"Manchester","location":{"type":"Point","coordinates":[-2.35,53.47]}},{"Store Name":"Manchester - Mount Street","City":"Manchester","location":{"type":"Point","coordinates":[-2.25,53.48]}},{"Store Name":"Manchester - Fallowfield","City":"Manchester","location":{"type":"Point","coordinates":[-2.22,53.44]}},{"Store Name":"Manchester - Oxford St","City":"Manchester","location":{"type":"Point","coordinates":[-2.24,53.47]}},{"Store Name":"Manchester Arndale - Lower Halle Sq","City":"Manchester","location":{"type":"Point","coordinates":[-2.24,53.48]}},{"Store Name":"Manchester - Corporation Street","City":"Manchester","location":{"type":"Point","coordinates":[-2.24,53.49]}},{"Store Name":"Cineworld Didsbury","City":"Manchester","location":{"type":"Point","coordinates":[-2.22,53.41]}},{"Store Name":"Manchester SSPEMEA - MAN Airport T1","City":"Manchester","location":{"type":"Point","coordinates":[-2.27,53.36]}},{"Store Name":"Mansfield-East Midlands Des. Outlet","City":"Mansfield","location":{"type":"Point","coordinates":[-1.31,53.11]}},{"Store Name":"Market Harborough - St Mary's Road","City":"MARKET HARBOROUGH","location":{"type":"Point","coordinates":[-0.92,52.48]}},{"Store Name":"Marlow - High Street","City":"Marlow","location":{"type":"Point","coordinates":[-0.78,51.57]}},{"Store Name":"Middlesbrough - Linthorpe Rd","City":"Middlesbrough","location":{"type":"Point","coordinates":[-1.24,54.58]}},{"Store Name":"Middlewich - A54 Holmes Chapel Road","City":"Middlewich","location":{"type":"Point","coordinates":[-2.43,53.2]}},{"Store Name":"Milton Keynes - Silbury Arcade","City":"Milton Keynes","location":{"type":"Point","coordinates":[-0.76,52.04]}},{"Store Name":"Milton Keynes - Midsummer Place","City":"Milton Keynes","location":{"type":"Point","coordinates":[-0.76,52.04]}},{"Store Name":"Milton Keynes - Kingston Centre","City":"Milton Keynes","location":{"type":"Point","coordinates":[-0.69,52.04]}},{"Store Name":"Cineworld Milton Keynes","City":"Milton Keynes","location":{"type":"Point","coordinates":[-0.75,52.04]}},{"Store Name":"Milton Keynes- Place RP Drive Thru","City":"Milton Keynes","location":{"type":"Point","coordinates":[-0.78,52.04]}},{"Store Name":"WB Newport Pagnell North Kiosk","City":"Milton Keynes","location":{"type":"Point","coordinates":[-0.75,52.08]}},{"Store Name":"Mirfield - A62 Leeds Road","City":"Mirfield","location":{"type":"Point","coordinates":[-1.72,53.69]}},{"Store Name":"Centre Parcs Sherwood Forest Centre","City":"Newark","location":{"type":"Point","coordinates":[-1.01,53.21]}},{"Store Name":"Newark - Market Place","City":"Newark","location":{"type":"Point","coordinates":[-0.81,53.08]}},{"Store Name":"Newbury - Northbrook Street","City":"Newbury","location":{"type":"Point","coordinates":[-1.32,51.4]}},{"Store Name":"Gateshead - Upper Mall Metrocentre","City":"Newcastle","location":{"type":"Point","coordinates":[-1.67,54.96]}},{"Store Name":"Newcastle - Jesmond","City":"Newcastle","location":{"type":"Point","coordinates":[-1.61,54.99]}},{"Store Name":"WB Keele North DT","City":"Newcastle","location":{"type":"Point","coordinates":[-2.29,52.99]}},{"Store Name":"WB Keele North Bridgelink","City":"Newcastle","location":{"type":"Point","coordinates":[-2.29,52.99]}},{"Store Name":"Newcastle-Eldon Sq St Georges Mall","City":"Newcastle","location":{"type":"Point","coordinates":[-1.61,54.97]}},{"Store Name":"WB Keele South DT","City":"Newcastle","location":{"type":"Point","coordinates":[-2.29,52.99]}},{"Store Name":"Newcastle - Neville Street","City":"Newcastle","location":{"type":"Point","coordinates":[-1.62,54.97]}},{"Store Name":"Newcastle - Northumberland Street","City":"Newcastle","location":{"type":"Point","coordinates":[-1.61,54.98]}},{"Store Name":"Newcastle-Eldon Sq St Andrews Mall","City":"Newcastle on Tyne","location":{"type":"Point","coordinates":[-1.62,54.97]}},{"Store Name":"Tesco Kingston Park","City":"Newcastle on Tyne","location":{"type":"Point","coordinates":[-1.66,55.01]}},{"Store Name":"Wolstanton Drive Thru","City":"Newcastle Under Lyme","location":{"type":"Point","coordinates":[-2.21,53.03]}},{"Store Name":"Newcastle-Grainger Street","City":"Newcastle Upon Tyne","location":{"type":"Point","coordinates":[-1.61,54.97]}},{"Store Name":"Village Newcastle Upon Tyne","City":"Newcastle upon Tyne","location":{"type":"Point","coordinates":[-1.51,55.03]}},{"Store Name":"Malmaison Newcastle","City":"Newcastle Upon Tyne","location":{"type":"Point","coordinates":[-1.6,54.97]}},{"Store Name":"Newmarket-A14 South Newmarket Heath","City":"Newmarket","location":{"type":"Point","coordinates":[0.41,52.27]}},{"Store Name":"Newmarket, High Street 61","City":"Newmarket","location":{"type":"Point","coordinates":[0.41,52.24]}},{"Store Name":"Newport - St James St","City":"Newport","location":{"type":"Point","coordinates":[-1.29,50.7]}},{"Store Name":"Newport, Kingsway Shopping Centre","City":"Newport","location":{"type":"Point","coordinates":[-2.99,51.59]}},{"Store Name":"Cineworld Newport","City":"Newport","location":{"type":"Point","coordinates":[-2.95,51.57]}},{"Store Name":"Kings Lynn - High Street","City":"Norfolk","location":{"type":"Point","coordinates":[0.4,52.75]}},{"Store Name":"Sainsburys North Cheam","City":"North Cheam","location":{"type":"Point","coordinates":[-0.23,51.37]}},{"Store Name":"Northampton - Market Square","City":"Northampton","location":{"type":"Point","coordinates":[-0.9,52.24]}},{"Store Name":"SSP Northampton","City":"Northampton","location":{"type":"Point","coordinates":[-0.91,52.24]}},{"Store Name":"Northampton-St James RP Drive Thru","City":"Northampton","location":{"type":"Point","coordinates":[-0.9,52.23]}},{"Store Name":"Cineworld Northampton","City":"Northampton","location":{"type":"Point","coordinates":[-0.94,52.24]}},{"Store Name":"Norwich - Castle Mall LU36","City":"Norwich","location":{"type":"Point","coordinates":[1.3,52.63]}},{"Store Name":"Norwich - St Stephens Street-","City":"Norwich","location":{"type":"Point","coordinates":[1.29,52.62]}},{"Store Name":"Norwich - Haymarket-","City":"Norwich","location":{"type":"Point","coordinates":[1.29,52.63]}},{"Store Name":"Norwich SSPEMEA Station Approach","City":"Norwich","location":{"type":"Point","coordinates":[1.31,52.63]}},{"Store Name":"Norwich - Riverside Retail Park","City":"Norwich","location":{"type":"Point","coordinates":[1.31,52.62]}},{"Store Name":"Village Nottingham","City":"Nottingham","location":{"type":"Point","coordinates":[-1.24,52.9]}},{"Store Name":"Centre Parcs Sherwood Kiosk","City":"Nottingham","location":{"type":"Point","coordinates":[-1.15,52.94]}},{"Store Name":"Notts Uni Jubilee","City":"Nottingham","location":{"type":"Point","coordinates":[-1.18,52.95]}},{"Store Name":"Giltbrook Retail Park","City":"Nottingham","location":{"type":"Point","coordinates":[-1.28,53.0]}},{"Store Name":"Nottingham - South Parade","City":"Nottingham","location":{"type":"Point","coordinates":[-1.15,52.95]}},{"Store Name":"Nottingham - Station Rd","City":"Nottingham","location":{"type":"Point","coordinates":[-1.15,52.95]}},{"Store Name":"Notts Uni Portland","City":"Nottingham","location":{"type":"Point","coordinates":[-1.19,52.94]}},{"Store Name":"Nottingham - Upper Parliament St","City":"Nottingham","location":{"type":"Point","coordinates":[-1.15,52.95]}},{"Store Name":"Worksop - A57 St Annes Drive","City":"Nottinghamshire","location":{"type":"Point","coordinates":[-1.14,53.3]}},{"Store Name":"Centre Parcs Sherwood Sports Plaza","City":"Nottinghamshire","location":{"type":"Point","coordinates":[-1.05,53.17]}},{"Store Name":"Bourne Leisure Primrose Park","City":"Nr Filey","location":{"type":"Point","coordinates":[-0.29,54.19]}},{"Store Name":"Eastington - Stonehouse A419","City":"nr Stroud","location":{"type":"Point","coordinates":[-2.31,51.76]}},{"Store Name":"Ormskirk - Moor Street","City":"Ormskirk","location":{"type":"Point","coordinates":[-2.88,53.57]}},{"Store Name":"Orpington - High Street","City":"Orpington","location":{"type":"Point","coordinates":[0.1,51.38]}},{"Store Name":"Oswestry - Mile End A5 DT","City":"Oswestry Gateway","location":{"type":"Point","coordinates":[-3.03,52.85]}},{"Store Name":"Compass Oxford Blackwell's","City":"Oxford","location":{"type":"Point","coordinates":[-1.23,51.76]}},{"Store Name":"Weston on the Green A34 South","City":"Oxford","location":{"type":"Point","coordinates":[-1.23,51.85]}},{"Store Name":"Oxford - Cornmarket Street","City":"Oxford","location":{"type":"Point","coordinates":[-1.26,51.75]}},{"Store Name":"Oxford WelcomeBreak Jc8A M40","City":"Oxford","location":{"type":"Point","coordinates":[-1.1,51.74]}},{"Store Name":"WB Oxford Main Caf\u00e9","City":"Oxford","location":{"type":"Point","coordinates":[-1.1,51.71]}},{"Store Name":"Oxford - Banbury Road","City":"Oxford","location":{"type":"Point","coordinates":[-1.26,51.78]}},{"Store Name":"WB Oxford Kiosk","City":"Oxford","location":{"type":"Point","coordinates":[-1.1,51.74]}},{"Store Name":"WB Oxford Peartree","City":"Oxford","location":{"type":"Point","coordinates":[-1.28,51.79]}},{"Store Name":"Centre Parcs Whinfell Sports Plaza","City":"Penrith","location":{"type":"Point","coordinates":[-2.74,54.6]}},{"Store Name":"Centre Parcs Whinfell Lakeside","City":"Penrith","location":{"type":"Point","coordinates":[-2.74,54.6]}},{"Store Name":"Peterborough - Cathedral Gateway","City":"Peterborough","location":{"type":"Point","coordinates":[-0.24,52.57]}},{"Store Name":"SSP Peterborough","City":"Peterborough","location":{"type":"Point","coordinates":[-0.25,52.57]}},{"Store Name":"Pevensey - Bexhill Road","City":"Pevensey","location":{"type":"Point","coordinates":[0.34,50.82]}},{"Store Name":"Pinner High Street","City":"Pinner","location":{"type":"Point","coordinates":[-0.39,51.58]}},{"Store Name":"Plymouth - Armada Way","City":"Plymouth","location":{"type":"Point","coordinates":[-4.14,50.37]}},{"Store Name":"Plymouth - Drakes Circus","City":"Plymouth","location":{"type":"Point","coordinates":[-4.14,50.37]}},{"Store Name":"Pocklington - York Road DT","City":"Pocklington","location":{"type":"Point","coordinates":[-0.8,53.92]}},{"Store Name":"Poole - High Street","City":"Poole","location":{"type":"Point","coordinates":[-1.98,50.72]}},{"Store Name":"Portsmouth -Western Road","City":"Portsmouth","location":{"type":"Point","coordinates":[-1.08,50.84]}},{"Store Name":"Portsmouth The Cascades Unit 10","City":"Portsmouth","location":{"type":"Point","coordinates":[-1.09,50.8]}},{"Store Name":"Portsmouth - Guildhall Walk","City":"Portsmouth","location":{"type":"Point","coordinates":[-1.09,50.8]}},{"Store Name":"WB South Mimms Kiosk","City":"Potters Bar","location":{"type":"Point","coordinates":[-0.22,51.69]}},{"Store Name":"WB South Mimms DT","City":"Potters Bar","location":{"type":"Point","coordinates":[-0.22,51.69]}},{"Store Name":"Preston - Capital Retail Park","City":"Preston","location":{"type":"Point","coordinates":[-2.68,53.75]}},{"Store Name":"Preston - Blue Bell Way DT","City":"Preston","location":{"type":"Point","coordinates":[-2.65,53.79]}},{"Store Name":"Preston - Fleetwood Road DT","City":"Preston","location":{"type":"Point","coordinates":[-2.9,53.82]}},{"Store Name":"Preston - Blackpool Road DT","City":"Preston","location":{"type":"Point","coordinates":[-2.68,53.77]}},{"Store Name":"Birmingham - Quinton","City":"Quinton","location":{"type":"Point","coordinates":[-2.01,52.46]}},{"Store Name":"Reading - Sainsbury's Calcot","City":"Reading","location":{"type":"Point","coordinates":[-1.06,51.44]}},{"Store Name":"Reading - Oracle Upper Mall","City":"Reading","location":{"type":"Point","coordinates":[-0.97,51.45]}},{"Store Name":"Reading - Queen Victoria Street","City":"Reading","location":{"type":"Point","coordinates":[-0.97,51.46]}},{"Store Name":"Reading - The Oracle","City":"Reading","location":{"type":"Point","coordinates":[-0.97,51.45]}},{"Store Name":"Malmaison Reading","City":"Reading","location":{"type":"Point","coordinates":[-0.97,51.46]}},{"Store Name":"SSP Reading","City":"Reading","location":{"type":"Point","coordinates":[-0.97,51.46]}},{"Store Name":"Reading - King Street","City":"Reading","location":{"type":"Point","coordinates":[-0.97,51.46]}},{"Store Name":"Hooley - Brighton Road","City":"Reigate and Banstead","location":{"type":"Point","coordinates":[-0.15,51.29]}},{"Store Name":"Richmond Sainsburys","City":"Richmond","location":{"type":"Point","coordinates":[-0.29,51.47]}},{"Store Name":"Richmond-Kew Road","City":"Richmond","location":{"type":"Point","coordinates":[-0.3,51.46]}},{"Store Name":"Rivenhall - A12 Southbound","City":"Rivenhall South","location":{"type":"Point","coordinates":[0.67,51.82]}},{"Store Name":"Rochdale - Manchester Road DT","City":"Rochdale","location":{"type":"Point","coordinates":[-2.17,53.6]}},{"Store Name":"Romford - Liberty Shopping Centre","City":"Romford","location":{"type":"Point","coordinates":[0.18,51.58]}},{"Store Name":"Romford - The Brewery-","City":"Romford","location":{"type":"Point","coordinates":[0.18,51.58]}},{"Store Name":"Ross on Wye - Ledbury Rd DT","City":"Ross on Wye","location":{"type":"Point","coordinates":[-2.57,51.93]}},{"Store Name":"Runcorn - Bridge Retail Park","City":"Runcorn","location":{"type":"Point","coordinates":[-2.73,53.34]}},{"Store Name":"Saffron Waldon - Market Street","City":"Safron Walden","location":{"type":"Point","coordinates":[0.24,52.02]}},{"Store Name":"Salisbury - Dolphin Retail Park","City":"Salisbury","location":{"type":"Point","coordinates":[-1.78,51.06]}},{"Store Name":"Salisbury - Silver Street 39","City":"Salisbury","location":{"type":"Point","coordinates":[-1.8,51.07]}},{"Store Name":"Saughall - Parkgate Road","City":"Saughall","location":{"type":"Point","coordinates":[-2.95,53.24]}},{"Store Name":"Sheffield - Western Bank Broomhill","City":"Sheffield","location":{"type":"Point","coordinates":[-1.49,53.38]}},{"Store Name":"Meadowhall - Lower Gallery","City":"Sheffield","location":{"type":"Point","coordinates":[-1.41,53.41]}},{"Store Name":"WB Woodall North DT","City":"Sheffield","location":{"type":"Point","coordinates":[-1.28,53.32]}},{"Store Name":"Sheffield - Orchard Square SC","City":"Sheffield","location":{"type":"Point","coordinates":[-1.47,53.38]}},{"Store Name":"Meadowhall - Arcade","City":"Sheffield","location":{"type":"Point","coordinates":[-1.41,53.41]}},{"Store Name":"SSP Sheffield","City":"Sheffield","location":{"type":"Point","coordinates":[-1.46,53.38]}},{"Store Name":"Sheffield - Eccleshall Road","City":"Sheffield","location":{"type":"Point","coordinates":[-1.49,53.37]}},{"Store Name":"Sheffield - Surrey St","City":"Sheffield","location":{"type":"Point","coordinates":[-1.47,53.38]}},{"Store Name":"Sheffield - Woodall S Kiosk","City":"Sheffield","location":{"type":"Point","coordinates":[-1.28,53.32]}},{"Store Name":"Meadowhall - Upper Gallery","City":"Sheffield","location":{"type":"Point","coordinates":[-1.41,53.41]}},{"Store Name":"Sheffield - Fargate","City":"Sheffield","location":{"type":"Point","coordinates":[-1.47,53.38]}},{"Store Name":"Cineworld Sheffield","City":"Sheffield","location":{"type":"Point","coordinates":[-1.41,53.4]}},{"Store Name":"Shoreham By Sea Next - Holmbush Cen","City":"Shoreham By Sea","location":{"type":"Point","coordinates":[-0.25,50.85]}},{"Store Name":"Shrewsbury - Bayston Hill DT","City":"Shrewsbury","location":{"type":"Point","coordinates":[-2.76,52.68]}},{"Store Name":"Shrewsbury Market Square","City":"Shrewsbury","location":{"type":"Point","coordinates":[-2.75,52.71]}},{"Store Name":"SSP Shrewsbury","City":"Shrewsbury","location":{"type":"Point","coordinates":[-2.75,52.71]}},{"Store Name":"Shrewsbury - Sainsbury's","City":"Shrewsbury","location":{"type":"Point","coordinates":[-2.75,52.69]}},{"Store Name":"Shrewsbury - Battlefield DT","City":"Shrewsbury","location":{"type":"Point","coordinates":[-2.72,52.75]}},{"Store Name":"WB Telford North","City":"Shropshire","location":{"type":"Point","coordinates":[-2.4,52.68]}},{"Store Name":"Sittingbourne - High Street","City":"Sittingbourne","location":{"type":"Point","coordinates":[0.74,51.34]}},{"Store Name":"Skipton - Albion Place","City":"Skipton","location":{"type":"Point","coordinates":[-2.02,53.96]}},{"Store Name":"Slough - High Street","City":"Slough","location":{"type":"Point","coordinates":[-0.59,51.51]}},{"Store Name":"Village Solihull","City":"Solihull","location":{"type":"Point","coordinates":[-1.82,52.39]}},{"Store Name":"Solihull - Touchwood Court","City":"Solihull","location":{"type":"Point","coordinates":[-1.78,52.41]}},{"Store Name":"Simonside Services-Newcastle RD DT","City":"South Shields","location":{"type":"Point","coordinates":[-1.45,54.98]}},{"Store Name":"Cheshire Oaks Outlet Centre","City":"South Wirral","location":{"type":"Point","coordinates":[-2.88,53.27]}},{"Store Name":"Southampton - Town Quay","City":"Southampton","location":{"type":"Point","coordinates":[-1.41,50.9]}},{"Store Name":"Southampton - West Quay RP - Next","City":"Southampton","location":{"type":"Point","coordinates":[-1.41,50.9]}},{"Store Name":"Southampton - Hedge End Retail Park","City":"Southampton","location":{"type":"Point","coordinates":[-1.31,50.92]}},{"Store Name":"Southampton - London Road","City":"Southampton","location":{"type":"Point","coordinates":[-1.4,50.91]}},{"Store Name":"Southampton - Above Bar Street","City":"Southampton","location":{"type":"Point","coordinates":[-1.4,50.91]}},{"Store Name":"Southampton - Southbrook Rd","City":"Southampton","location":{"type":"Point","coordinates":[-1.41,50.91]}},{"Store Name":"Southend - High Street","City":"Southend on Sea","location":{"type":"Point","coordinates":[0.71,51.54]}},{"Store Name":"Southport - Lord Street","City":"Southport","location":{"type":"Point","coordinates":[-3.01,53.65]}},{"Store Name":"The Gallery - Bankside","City":"Southwark","location":{"type":"Point","coordinates":[-0.1,51.51]}},{"Store Name":"Spalding-Designer Outlet","City":"Spalding","location":{"type":"Point","coordinates":[0.13,52.8]}},{"Store Name":"St Albans - High Street-","City":"St Albans","location":{"type":"Point","coordinates":[-0.34,51.75]}},{"Store Name":"St Helens - Rainford Road DT","City":"St Helens","location":{"type":"Point","coordinates":[-2.77,53.47]}},{"Store Name":"St Leonard 23.5Degrees Ringwood Rd","City":"St Leonard's","location":{"type":"Point","coordinates":[-1.84,50.83]}},{"Store Name":"London Colney - Sainsbury's","City":"St. Albans","location":{"type":"Point","coordinates":[-0.29,51.72]}},{"Store Name":"Stafford Station SSPEMEA - Station","City":"Stafford","location":{"type":"Point","coordinates":[-2.12,52.8]}},{"Store Name":"Stafford - Greengate Street","City":"STAFFORD","location":{"type":"Point","coordinates":[-2.12,52.81]}},{"Store Name":"WB Keele North Caf\u00e9","City":"Staffordshire","location":{"type":"Point","coordinates":[-2.29,52.99]}},{"Store Name":"Uttoxeter- Derby Road DT","City":"Staffordshire","location":{"type":"Point","coordinates":[-1.86,52.91]}},{"Store Name":"WB Keele South Caf\u00e9","City":"Staffordshire","location":{"type":"Point","coordinates":[-2.29,52.99]}},{"Store Name":"Staines - High Street","City":"Staines","location":{"type":"Point","coordinates":[-1.48,52.92]}},{"Store Name":"Staines - Sainsbury's","City":"Staines","location":{"type":"Point","coordinates":[-0.52,51.43]}},{"Store Name":"SSP Stansted","City":"Stansted","location":{"type":"Point","coordinates":[0.26,51.89]}},{"Store Name":"Stevenage Cineworld Leisure Park","City":"Stevenage","location":{"type":"Point","coordinates":[-0.2,51.89]}},{"Store Name":"Stockport Stn SSPEMEA Plt 12","City":"Stockport","location":{"type":"Point","coordinates":[-2.16,53.4]}},{"Store Name":"Stoke on Trent-Moorland Service Stn","City":"Stoke on Trent","location":{"type":"Point","coordinates":[-2.18,53.05]}},{"Store Name":"Stoke-on-Trent - Talke Rd DT","City":"Stoke on Trent","location":{"type":"Point","coordinates":[-2.24,53.03]}},{"Store Name":"Stratford - The Broadway","City":"Stratford","location":{"type":"Point","coordinates":[0.0,51.54]}},{"Store Name":"Stratford upon Avon - High Street","City":"Stratford upon Avon","location":{"type":"Point","coordinates":[-1.71,52.19]}},{"Store Name":"New Vision Lakenheath","City":"Suffolk","location":{"type":"Point","coordinates":[0.55,52.39]}},{"Store Name":"Sunderland - The Bridges Unit","City":"Sunderland","location":{"type":"Point","coordinates":[-1.38,54.91]}},{"Store Name":"Surbiton","City":"Surbiton","location":{"type":"Point","coordinates":[-0.31,51.39]}},{"Store Name":"SSP Sutton","City":"Sutton","location":{"type":"Point","coordinates":[-0.19,51.36]}},{"Store Name":"Sutton - High Street-","City":"Sutton","location":{"type":"Point","coordinates":[-0.19,51.36]}},{"Store Name":"Sutton Coldfield-Gracechurch Centre","City":"Sutton Coldfield","location":{"type":"Point","coordinates":[-1.82,52.56]}},{"Store Name":"Village Swindon","City":"Swindon","location":{"type":"Point","coordinates":[-1.83,51.56]}},{"Store Name":"Swindon - New Look Orbital Park","City":"Swindon","location":{"type":"Point","coordinates":[-1.81,51.6]}},{"Store Name":"Swindon - Brunel Centre","City":"Swindon","location":{"type":"Point","coordinates":[-1.79,51.56]}},{"Store Name":"Swindon - Great Western Outlet","City":"Swindon","location":{"type":"Point","coordinates":[-1.8,51.56]}},{"Store Name":"Village Ashton","City":"Tameside","location":{"type":"Point","coordinates":[-2.11,53.49]}},{"Store Name":"Compass Tamworth Snowdome","City":"Tamworth","location":{"type":"Point","coordinates":[-1.7,52.63]}},{"Store Name":"Tamworth - Centurion Services DT","City":"Tamworth","location":{"type":"Point","coordinates":[-1.61,52.6]}},{"Store Name":"Taplow Sainsburys","City":"Taplow","location":{"type":"Point","coordinates":[-0.67,51.52]}},{"Store Name":"SSP Taunton","City":"Taunton","location":{"type":"Point","coordinates":[-3.1,51.02]}},{"Store Name":"Teddington - High Street","City":"Teddington","location":{"type":"Point","coordinates":[-0.33,51.43]}},{"Store Name":"Cineworld Telford","City":"Telford","location":{"type":"Point","coordinates":[-2.45,52.67]}},{"Store Name":"Tewkesbury - Ashchurch A46","City":"Tewkesbury","location":{"type":"Point","coordinates":[-2.12,52.0]}},{"Store Name":"Centre Parcs Elveden Poolside","City":"Thetford","location":{"type":"Point","coordinates":[0.66,52.39]}},{"Store Name":"Thinford - Durham Road DT","City":"Thinford","location":{"type":"Point","coordinates":[-1.57,54.7]}},{"Store Name":"Lakeside - Level 2","City":"Thurrock","location":{"type":"Point","coordinates":[0.28,51.49]}},{"Store Name":"Tonbridge - High Street","City":"Tonbridge","location":{"type":"Point","coordinates":[0.27,51.19]}},{"Store Name":"Torquay, Fleet Street","City":"Torquay","location":{"type":"Point","coordinates":[-3.53,50.46]}},{"Store Name":"Trowbridge Fore Street (49)","City":"Trowbridge","location":{"type":"Point","coordinates":[-2.21,51.33]}},{"Store Name":"Truro - Victoria Square","City":"Truro","location":{"type":"Point","coordinates":[-5.05,50.26]}},{"Store Name":"Tunbridge Wells - Caverley Road","City":"Tunbridge Wells","location":{"type":"Point","coordinates":[0.26,51.13]}},{"Store Name":"Twickenham - King Street-","City":"Twickenham","location":{"type":"Point","coordinates":[-0.33,51.45]}},{"Store Name":"Uxbridge - The Chimes Kiosk - Upper","City":"Uxbridge","location":{"type":"Point","coordinates":[-0.48,51.55]}},{"Store Name":"Uxbridge - The Chimes - Upper","City":"Uxbridge","location":{"type":"Point","coordinates":[-0.48,51.55]}},{"Store Name":"Wakefield - Calder Park DT","City":"Wakefield","location":{"type":"Point","coordinates":[-1.52,53.65]}},{"Store Name":"Wallasey - New Brighton","City":"Wallasey","location":{"type":"Point","coordinates":[-3.05,53.44]}},{"Store Name":"Walsall - Crown Wharf Shopping Park","City":"Walsall","location":{"type":"Point","coordinates":[-1.99,52.59]}},{"Store Name":"Village Walsall","City":"Walsall","location":{"type":"Point","coordinates":[-2.01,52.58]}},{"Store Name":"Cheshunt - Brookfield Centre","City":"Waltham Cross","location":{"type":"Point","coordinates":[-0.04,51.72]}},{"Store Name":"Walton on Thames - Sainsbury's","City":"Walton on Thames","location":{"type":"Point","coordinates":[-0.42,51.39]}},{"Store Name":"Wandsworth Cineworld","City":"Wandsworth","location":{"type":"Point","coordinates":[-0.19,51.46]}},{"Store Name":"Wanstead High Street","City":"Wanstead","location":{"type":"Point","coordinates":[0.03,51.58]}},{"Store Name":"Centre Parcs Longleat","City":"Warminster","location":{"type":"Point","coordinates":[-2.22,51.17]}},{"Store Name":"Village Warrington","City":"Warrington","location":{"type":"Point","coordinates":[-2.6,53.38]}},{"Store Name":"Warrington - Golden Square SC","City":"Warrington","location":{"type":"Point","coordinates":[-2.6,53.39]}},{"Store Name":"Warrington - Oakwood Gate DT","City":"Warrington","location":{"type":"Point","coordinates":[-2.53,53.42]}},{"Store Name":"Warrington - Apollo Park","City":"Warrington","location":{"type":"Point","coordinates":[-2.64,53.42]}},{"Store Name":"WB Warwick South DT","City":"Warwick","location":{"type":"Point","coordinates":[-1.5,52.22]}},{"Store Name":"WB Warwick South","City":"Warwick","location":{"type":"Point","coordinates":[-1.5,52.22]}},{"Store Name":"Warwick - M40 Budbrooke South DT","City":"Warwick","location":{"type":"Point","coordinates":[-1.61,52.28]}},{"Store Name":"WB Warwick North Kiosk","City":"Warwick","location":{"type":"Point","coordinates":[-1.51,52.22]}},{"Store Name":"Watford - High Street","City":"Watford","location":{"type":"Point","coordinates":[-0.4,51.66]}},{"Store Name":"Watford Harlequin Centre Lower Mall","City":"Watford","location":{"type":"Point","coordinates":[-0.39,51.66]}},{"Store Name":"Birmingham - Gallagher RP - Next","City":"Wednesbury","location":{"type":"Point","coordinates":[-2.01,52.57]}},{"Store Name":"Willow Place, Wellingborough,  Co","City":"Wellingborough","location":{"type":"Point","coordinates":[-0.69,52.29]}},{"Store Name":"Welwyn Garden City Howard Centre","City":"Welwyn Garden City","location":{"type":"Point","coordinates":[-0.2,51.8]}},{"Store Name":"Wembley -  Civic Centre","City":"Wembley","location":{"type":"Point","coordinates":[-0.28,51.56]}},{"Store Name":"Cineworld Wembley","City":"Wembley","location":{"type":"Point","coordinates":[-0.28,51.56]}},{"Store Name":"Gatwick - Airside - South Terminal","City":"West Sussex","location":{"type":"Point","coordinates":[-0.19,51.16]}},{"Store Name":"SSP Gatwick","City":"West Sussex","location":{"type":"Point","coordinates":[-0.18,51.16]}},{"Store Name":"Lakeside - West Thurrock Retail Pk","City":"West Thurrock","location":{"type":"Point","coordinates":[0.27,51.49]}},{"Store Name":"Leeds White Rose Drive Thru","City":"West Yorkshire","location":{"type":"Point","coordinates":[-1.57,53.76]}},{"Store Name":"WB Sedgemoor North","City":"Weston Super Mare","location":{"type":"Point","coordinates":[-2.92,51.27]}},{"Store Name":"Weybridge - Church Street","City":"Weybridge","location":{"type":"Point","coordinates":[-0.46,51.37]}},{"Store Name":"Bourne Leisure Littlesea","City":"Weymouth","location":{"type":"Point","coordinates":[-2.49,50.6]}},{"Store Name":"Whitchurch - Wrexham Road DT","City":"Whitchurch","location":{"type":"Point","coordinates":[-2.71,52.97]}},{"Store Name":"Whitely Village Unit E3","City":"Whiteley","location":{"type":"Point","coordinates":[-1.25,50.89]}},{"Store Name":"Whitton - High Street","City":"Whitton","location":{"type":"Point","coordinates":[-0.36,51.45]}},{"Store Name":"Witney - Woolgate Shopping Centre","City":"Wigan","location":{"type":"Point","coordinates":[-1.49,51.78]}},{"Store Name":"Wigan - Market Place","City":"Wigan","location":{"type":"Point","coordinates":[-2.63,53.55]}},{"Store Name":"Wigan - Scot Lane DT","City":"Wigan","location":{"type":"Point","coordinates":[-2.67,53.55]}},{"Store Name":"Wilmslow - Grove Street","City":"Wilmslow","location":{"type":"Point","coordinates":[-2.23,53.33]}},{"Store Name":"Centre Parcs Longleat Sports Plaza","City":"Wiltshire","location":{"type":"Point","coordinates":[-2.23,51.19]}},{"Store Name":"Badger Farm - Sainsbury's","City":"Winchester","location":{"type":"Point","coordinates":[-1.34,51.05]}},{"Store Name":"Winchester High Street","City":"Winchster","location":{"type":"Point","coordinates":[-1.31,51.06]}},{"Store Name":"Peascod Str, Windsor","City":"Windsor","location":{"type":"Point","coordinates":[-0.61,51.48]}},{"Store Name":"Wirral - A41 New Chester Road","City":"Wirral","location":{"type":"Point","coordinates":[-2.96,53.31]}},{"Store Name":"Village Wirral","City":"Wirral","location":{"type":"Point","coordinates":[-2.99,53.35]}},{"Store Name":"Wisbech - A47 Wisbech Bypass","City":"Wisbech","location":{"type":"Point","coordinates":[0.21,52.68]}},{"Store Name":"Woking - Wolsey Walk","City":"Woking","location":{"type":"Point","coordinates":[-0.56,51.32]}},{"Store Name":"SSP Woking","City":"Woking","location":{"type":"Point","coordinates":[-0.55,51.31]}},{"Store Name":"Wolverhampton","City":"Wolverhampton","location":{"type":"Point","coordinates":[-2.13,52.58]}},{"Store Name":"University of Wolverhampton","City":"Wolverhampton","location":{"type":"Point","coordinates":[-2.13,52.59]}},{"Store Name":"Woolwich - Powis Street","City":"Woolwich","location":{"type":"Point","coordinates":[0.07,51.49]}},{"Store Name":"Worcester - The Cross","City":"Worcester","location":{"type":"Point","coordinates":[-2.22,52.19]}},{"Store Name":"Worthing - South Street","City":"Worthing","location":{"type":"Point","coordinates":[-0.37,50.81]}},{"Store Name":"Worthing - Broadwater Street West","City":"Worthing","location":{"type":"Point","coordinates":[-0.38,50.83]}},{"Store Name":"Yate Shopping Ctr West Walk","City":"Yate","location":{"type":"Point","coordinates":[-2.41,51.54]}},{"Store Name":"Yeovi -  Babylon Retail Park","City":"Yeovil","location":{"type":"Point","coordinates":[-2.61,50.94]}},{"Store Name":"York - Monks Cross Shopping Centre","City":"York","location":{"type":"Point","coordinates":[-1.05,53.99]}},{"Store Name":"York - McArthur Glen Factory Outlet","City":"York","location":{"type":"Point","coordinates":[-1.08,53.92]}},{"Store Name":"SSP York","City":"York","location":{"type":"Point","coordinates":[-1.09,53.96]}},{"Store Name":"York - Coney Street","City":"York","location":{"type":"Point","coordinates":[-1.08,53.96]}},{"Store Name":"WB Woodall North Cafe","City":"Yorkshire","location":{"type":"Point","coordinates":[-1.28,53.32]}},{"Store Name":"WB Woodall South Cafe","City":"Yorkshire","location":{"type":"Point","coordinates":[-1.28,53.32]}},{"Store Name":"WB Hartshead Moor East","City":"Yorkshire","location":{"type":"Point","coordinates":[-1.75,53.71]}},{"Store Name":"WB Hartshead Moor West","City":"Yorkshire","location":{"type":"Point","coordinates":[-1.74,53.71]}},{"Store Name":"Antrim Junction 1 New","City":"Antrim","location":{"type":"Point","coordinates":[-6.23,54.73]}},{"Store Name":"Bridgewater Park Outlet Centre - 6","City":"Banbridge","location":{"type":"Point","coordinates":[-6.28,54.33]}},{"Store Name":"Bangor Springhill","City":"Bangor","location":{"type":"Point","coordinates":[-5.7,54.66]}},{"Store Name":"Belfast Victoria Square (UG13)","City":"Belfast","location":{"type":"Point","coordinates":[-5.93,54.6]}},{"Store Name":"Great Victoria Street","City":"Belfast","location":{"type":"Point","coordinates":[-5.93,54.6]}},{"Store Name":"Belfast Lisburn Road","City":"Belfast","location":{"type":"Point","coordinates":[-5.96,54.57]}},{"Store Name":"Belfast City Airport (airside)","City":"Belfast","location":{"type":"Point","coordinates":[-5.87,54.62]}},{"Store Name":"Belfast Lisburn Road (90)","City":"Belfast","location":{"type":"Point","coordinates":[-5.94,54.59]}},{"Store Name":"Corn Market","City":"Belfast","location":{"type":"Point","coordinates":[-5.93,54.6]}},{"Store Name":"BFS - Belfast Airport","City":"Belfast","location":{"type":"Point","coordinates":[-6.22,54.66]}},{"Store Name":"Belfast Castle Lane","City":"Belfast","location":{"type":"Point","coordinates":[-5.93,54.6]}},{"Store Name":"Boucher-","City":"Belfast","location":{"type":"Point","coordinates":[-5.96,54.58]}},{"Store Name":"Belfast Botanic Avenue","City":"Belfast","location":{"type":"Point","coordinates":[-5.93,54.59]}},{"Store Name":"Belfast Castlecourt","City":"Belfast","location":{"type":"Point","coordinates":[-5.93,54.6]}},{"Store Name":"Coleraine 1 Kingsgate Street","City":"Coleraine","location":{"type":"Point","coordinates":[-6.67,55.13]}},{"Store Name":"Craigavon Rushmere SC (unit H)","City":"Craigavon","location":{"type":"Point","coordinates":[-6.39,54.45]}},{"Store Name":"Londonderry Foyleside SC (Unit M14)","City":"Londonderry","location":{"type":"Point","coordinates":[-7.32,54.99]}},{"Store Name":"Londonderry Crescent Link (7B)","City":"Londonderry","location":{"type":"Point","coordinates":[-7.27,55.0]}},{"Store Name":"Newry The Quays","City":"Newry","location":{"type":"Point","coordinates":[-6.34,54.18]}},{"Store Name":"Aberdeen - Upperkirkgate","City":"Aberdeen","location":{"type":"Point","coordinates":[-2.1,57.15]}},{"Store Name":"Aberdeen - St. Nicholas Centre","City":"Aberdeen","location":{"type":"Point","coordinates":[-2.1,57.15]}},{"Store Name":"Compass Aberdeen Uni","City":"Aberdeen","location":{"type":"Point","coordinates":[-2.11,57.17]}},{"Store Name":"Aberdeen - Holburn Junction","City":"Aberdeen","location":{"type":"Point","coordinates":[-2.11,57.14]}},{"Store Name":"Village Aberdeen","City":"Aberdeen","location":{"type":"Point","coordinates":[-2.21,57.15]}},{"Store Name":"Aberdeen - Union Street","City":"Aberdeen","location":{"type":"Point","coordinates":[-2.11,57.14]}},{"Store Name":"Aberdeen Union Square","City":"Aberdeen","location":{"type":"Point","coordinates":[-2.1,57.14]}},{"Store Name":"Compass Next Cardiff","City":"Cardiff","location":{"type":"Point","coordinates":[-3.18,51.48]}},{"Store Name":"Dumbarton - A82 Milton","City":"Dumbarton","location":{"type":"Point","coordinates":[-4.52,55.94]}},{"Store Name":"Dunfermline - Fife Leisure Park DT","City":"Dumfermline","location":{"type":"Point","coordinates":[-3.4,56.08]}},{"Store Name":"WB Gretna","City":"Dumfries","location":{"type":"Point","coordinates":[-3.08,55.01]}},{"Store Name":"Dumfries - High Street","City":"Dumfries","location":{"type":"Point","coordinates":[-3.61,55.07]}},{"Store Name":"Dundee - Overgate","City":"Dundee","location":{"type":"Point","coordinates":[-2.97,56.46]}},{"Store Name":"Dunfermline-Kingsgate Shopping Ctr","City":"Dunfermline","location":{"type":"Point","coordinates":[-3.46,56.07]}},{"Store Name":"East Kilbride Shopping Centre -West","City":"East Kilbride","location":{"type":"Point","coordinates":[-4.18,55.76]}},{"Store Name":"Edinburgh - Canongate","City":"Edinburgh","location":{"type":"Point","coordinates":[-3.18,55.95]}},{"Store Name":"Edinburgh - Shandwick Place","City":"Edinburgh","location":{"type":"Point","coordinates":[-3.21,55.95]}},{"Store Name":"Edinburgh-Lothian Road","City":"Edinburgh","location":{"type":"Point","coordinates":[-3.21,55.95]}},{"Store Name":"Village Edinburgh","City":"Edinburgh","location":{"type":"Point","coordinates":[-3.23,55.97]}},{"Store Name":"Edinburgh - Princes Street","City":"Edinburgh","location":{"type":"Point","coordinates":[-3.2,55.95]}},{"Store Name":"Edinburgh - Haymarket Station","City":"Edinburgh","location":{"type":"Point","coordinates":[-3.22,55.95]}},{"Store Name":"Edinburgh -Ocean Terminal-Level One","City":"Edinburgh","location":{"type":"Point","coordinates":[-3.18,55.98]}},{"Store Name":"Edinburgh- Middle Meadow Walk","City":"Edinburgh","location":{"type":"Point","coordinates":[-3.19,55.94]}},{"Store Name":"Edinburgh-Fort Kinnaird RP-W\/Stones","City":"Edinburgh","location":{"type":"Point","coordinates":[-3.11,55.93]}},{"Store Name":"Edinburgh-Royal Mile","City":"Edinburgh","location":{"type":"Point","coordinates":[-3.19,55.95]}},{"Store Name":"Edinburgh - Colinton Road","City":"Edinburgh","location":{"type":"Point","coordinates":[-3.21,55.93]}},{"Store Name":"Edinburgh Dreghorn Link","City":"Edinburgh","location":{"type":"Point","coordinates":[-3.23,55.9]}},{"Store Name":"Edinburgh - George St\/Castle St","City":"Edinburgh","location":{"type":"Point","coordinates":[-3.2,55.95]}},{"Store Name":"Edinburgh - Nicolson Street","City":"Edinburgh","location":{"type":"Point","coordinates":[-3.18,55.94]}},{"Store Name":"SSP Edinburgh Airport","City":"Edinburgh","location":{"type":"Point","coordinates":[-3.36,55.95]}},{"Store Name":"Edinburgh - Waverley Steps","City":"Edinburgh","location":{"type":"Point","coordinates":[-3.19,55.95]}},{"Store Name":"Edinburgh - Gyle","City":"Edinburgh","location":{"type":"Point","coordinates":[-3.31,55.94]}},{"Store Name":"Edinburgh - George St\/Hanover St","City":"Edinburgh","location":{"type":"Point","coordinates":[-3.2,55.95]}},{"Store Name":"Cineworld Edinburgh","City":"Edinburgh","location":{"type":"Point","coordinates":[-3.23,55.94]}},{"Store Name":"Edinburgh - The Cube","City":"Edingurgh","location":{"type":"Point","coordinates":[-3.19,55.95]}},{"Store Name":"Elgin - High Street","City":"Elgin","location":{"type":"Point","coordinates":[-3.32,57.65]}},{"Store Name":"Cineworld Falkirk","City":"Falkirk","location":{"type":"Point","coordinates":[-3.78,56.0]}},{"Store Name":"Glasgow - Buchanan Street","City":"Glasgow","location":{"type":"Point","coordinates":[-4.25,55.86]}},{"Store Name":"Glasgow - St Georges Road","City":"Glasgow","location":{"type":"Point","coordinates":[-4.27,55.87]}},{"Store Name":"Glasgow - Central Station","City":"Glasgow","location":{"type":"Point","coordinates":[-4.26,55.86]}},{"Store Name":"Glasgow-Fort","City":"Glasgow","location":{"type":"Point","coordinates":[-4.14,55.87]}},{"Store Name":"Village Glasgow","City":"Glasgow","location":{"type":"Point","coordinates":[-4.34,55.82]}},{"Store Name":"Glasgow Cineworld Renfrew St (7)","City":"Glasgow","location":{"type":"Point","coordinates":[-4.26,55.86]}},{"Store Name":"Glasgow - Exchange Place","City":"Glasgow","location":{"type":"Point","coordinates":[-4.25,55.86]}},{"Store Name":"Glasgow - Byres Road","City":"Glasgow","location":{"type":"Point","coordinates":[-4.29,55.88]}},{"Store Name":"Cineworld Science Centre","City":"Glasgow","location":{"type":"Point","coordinates":[-4.29,55.85]}},{"Store Name":"Cineworld Glasgow Silverburn","City":"Glasgow","location":{"type":"Point","coordinates":[-2.87,55.74]}},{"Store Name":"Glasgow-Bothwell Street","City":"Glasgow","location":{"type":"Point","coordinates":[-4.26,55.86]}},{"Store Name":"Glasgow - Buchanan Galleries -Upper","City":"Glasgow","location":{"type":"Point","coordinates":[-4.25,55.86]}},{"Store Name":"Glasgow-Braehead Shopping Ctr-Upper","City":"Glasgow","location":{"type":"Point","coordinates":[-4.37,55.88]}},{"Store Name":"Glasgow - Nelson Mandela Square","City":"Glasgow","location":{"type":"Point","coordinates":[-4.25,55.86]}},{"Store Name":"Compass Next Glasgow","City":"Glasgow","location":{"type":"Point","coordinates":[-4.35,55.86]}},{"Store Name":"Glasgow-Sauchiehall Street","City":"Glasgow","location":{"type":"Point","coordinates":[-4.25,55.86]}},{"Store Name":"Glasgow - Silverburn SC - Lower","City":"Glasgow","location":{"type":"Point","coordinates":[-4.34,55.82]}},{"Store Name":"Inverness - Eastgate Centre","City":"Inverness","location":{"type":"Point","coordinates":[-4.22,57.48]}},{"Store Name":"Inverness - Inverness RP - New Look","City":"Inverness","location":{"type":"Point","coordinates":[-4.18,57.48]}},{"Store Name":"SSP Forth Valley Hospital","City":"Larbert","location":{"type":"Point","coordinates":[-3.85,56.03]}},